{"year" : -499, "title" : "Miletus", "latitude": 37.530233, "longitude": 27.278369, "month": 0, "day": 0, "articleLength" : 20830}
{"year" : -499, "title" : "Miletus", "latitude": 37.530233, "longitude": 27.278369, "month": 0, "day": 0, "articleLength" : 20830}
{"year" : -499, "title" : "Sparta", "latitude": 37.07583303, "longitude": 22.42083165, "month": 0, "day": 0, "articleLength" : 53175}
{"year" : -499, "title" : "Thracian Chersonese", "latitude": 40.3499986, "longitude": 26.4666648, "month": 0, "day": 0, "articleLength" : 6083}
{"year" : -499, "title" : "Lemnos", "latitude": 39.916663, "longitude": 25.249999, "month": 0, "day": 0, "articleLength" : 18568}
{"year" : -499, "title" : "Imbros", "latitude": 40.156499374, "longitude": 25.83999664, "month": 0, "day": 0, "articleLength" : 23967}
{"year" : -498, "title" : "Ephesus", "latitude": 37.937162918, "longitude": 27.337831982, "month": 0, "day": 0, "articleLength" : 33946}
{"year" : -498, "title" : "Sardis", "latitude": 38.486331388, "longitude": 28.03749985, "month": 0, "day": 0, "articleLength" : 10436}
{"year" : -498, "title" : "Miletus", "latitude": 37.530233, "longitude": 27.278369, "month": 0, "day": 0, "articleLength" : 20830}
{"year" : -498, "title" : "Kaunos", "latitude": 36.821830046, "longitude": 28.620497518, "month": 0, "day": 0, "articleLength" : 4988}
{"year" : -497, "title" : "Tianjin", "latitude": 39.0, "longitude": 117.0, "month": 0, "day": 0, "articleLength" : 58168}
{"year" : -496, "title" : "Carthage", "latitude": 36.851829926, "longitude": 10.320498718, "month": 0, "day": 0, "articleLength" : 46803}
{"year" : -496, "title" : "China", "latitude": 35.0, "longitude": 105.0, "month": 0, "day": 0, "articleLength" : 67490}
{"year" : -495, "title" : "Circus Maximus", "latitude": 41.8859, "longitude": 12.4857, "month": 0, "day": 0, "articleLength" : 7168}
{"year" : -494, "title" : "Miletus", "latitude": 37.530233, "longitude": 27.278369, "month": 0, "day": 0, "articleLength" : 20830}
{"year" : -494, "title" : "Lesbos", "latitude": 39.166666, "longitude": 26.333332, "month": 0, "day": 0, "articleLength" : 16158}
{"year" : -494, "title" : "Didyma", "latitude": 37.384962, "longitude": 27.25643, "month": 0, "day": 0, "articleLength" : 11485}
{"year" : -494, "title" : "Sparta", "latitude": 37.07583303, "longitude": 22.42083165, "month": 0, "day": 0, "articleLength" : 53175}
{"year" : -494, "title" : "Tiryns", "latitude": 37.592997628, "longitude": 22.793163494, "month": 0, "day": 0, "articleLength" : 12491}
{"year" : -494, "title" : "Sardis", "latitude": 38.486331388, "longitude": 28.03749985, "month": 0, "day": 0, "articleLength" : 10436}
{"year" : -493, "title" : "Miletus", "latitude": 37.530233, "longitude": 27.278369, "month": 0, "day": 0, "articleLength" : 20830}
{"year" : -492, "title" : "Mount Athos", "latitude": 40.154332716, "longitude": 24.32249871, "month": 0, "day": 0, "articleLength" : 56090}
{"year" : -491, "title" : "Sparta", "latitude": 37.07583303, "longitude": 22.42083165, "month": 0, "day": 0, "articleLength" : 53175}
{"year" : -491, "title" : "Aegina", "latitude": 37.749997, "longitude": 23.4333316, "month": 0, "day": 0, "articleLength" : 34470}
{"year" : -491, "title" : "Sparta", "latitude": 37.07583303, "longitude": 22.42083165, "month": 0, "day": 0, "articleLength" : 53175}
{"year" : -491, "title" : "Apadana", "latitude": 29.935, "longitude": 52.89, "month": 0, "day": 0, "articleLength" : 5223}
{"year" : -491, "title" : "Persepolis", "latitude": 29.933996264, "longitude": 52.888163114, "month": 0, "day": 0, "articleLength" : 37065}
{"year" : -491, "title" : "University of Chicago", "latitude": 41.787163518, "longitude": -87.593164294, "month": 0, "day": 0, "articleLength" : 59970}
{"year" : -490, "title" : "Battle of Marathon", "latitude": 38.11749953, "longitude": 23.973662772, "month": 0, "day": 0, "articleLength" : 57834}
{"year" : -490, "title" : "Plataea", "latitude": 38.209332496, "longitude": 23.266832266, "month": 0, "day": 0, "articleLength" : 11295}
{"year" : -490, "title" : "Sparta", "latitude": 37.07583303, "longitude": 22.42083165, "month": 0, "day": 0, "articleLength" : 53175}
{"year" : -490, "title" : "Sparta", "latitude": 37.07583303, "longitude": 22.42083165, "month": 0, "day": 0, "articleLength" : 53175}
{"year" : -490, "title" : "Lemnos", "latitude": 39.916663, "longitude": 25.249999, "month": 0, "day": 0, "articleLength" : 18568}
{"year" : -490, "title" : "Sardis", "latitude": 38.486331388, "longitude": 28.03749985, "month": 0, "day": 0, "articleLength" : 10436}
{"year" : -490, "title" : "Sparta", "latitude": 37.07583303, "longitude": 22.42083165, "month": 0, "day": 0, "articleLength" : 53175}
{"year" : -489, "title" : "Battle of Marathon", "latitude": 38.11749953, "longitude": 23.973662772, "month": 0, "day": 0, "articleLength" : 57834}
{"year" : -489, "title" : "Paros", "latitude": 37.083333, "longitude": 25.1499994, "month": 0, "day": 0, "articleLength" : 15904}
{"year" : -487, "title" : "Aegina", "latitude": 37.749997, "longitude": 23.4333316, "month": 0, "day": 0, "articleLength" : 34470}
{"year" : -486, "title" : "Yangtze River", "latitude": 33.46749813, "longitude": 91.19083257, "month": 0, "day": 0, "articleLength" : 45065}
{"year" : -486, "title" : "Huai River", "latitude": 32.4103, "longitude": 115.404, "month": 0, "day": 0, "articleLength" : 4050}
{"year" : -486, "title" : "Apadana", "latitude": 29.935, "longitude": 52.89, "month": 0, "day": 0, "articleLength" : 5223}
{"year" : -486, "title" : "Persepolis", "latitude": 29.933996264, "longitude": 52.888163114, "month": 0, "day": 0, "articleLength" : 37065}
{"year" : -486, "title" : "Tehran", "latitude": 35.690997236, "longitude": 51.420498318, "month": 0, "day": 0, "articleLength" : 58065}
{"year" : -485, "title" : "Libya", "latitude": 27.4, "longitude": 17.6, "month": 0, "day": 0, "articleLength" : 101182}
{"year" : -485, "title" : "Caucasus Mountains", "latitude": 42.499998, "longitude": 45.0, "month": 0, "day": 0, "articleLength" : 14480}
{"year" : -485, "title" : "Aral Sea", "latitude": 45.0, "longitude": 60.0, "month": 0, "day": 0, "articleLength" : 39237}
{"year" : -485, "title" : "Persian Gulf", "latitude": 26.902829722, "longitude": 51.541831166, "month": 0, "day": 0, "articleLength" : 46515}
{"year" : -484, "title" : "Babylon", "latitude": 32.535164526, "longitude": 44.41916499, "month": 0, "day": 0, "articleLength" : 33695}
{"year" : -483, "title" : "Mount Athos", "latitude": 40.154332716, "longitude": 24.32249871, "month": 0, "day": 0, "articleLength" : 56090}
{"year" : -483, "title" : "Megara Hyblaea", "latitude": 37.2039, "longitude": 15.1819, "month": 0, "day": 0, "articleLength" : 7397}
{"year" : -481, "title" : "Sardis", "latitude": 38.486331388, "longitude": 28.03749985, "month": 0, "day": 0, "articleLength" : 10436}
{"year" : -481, "title" : "Sparta", "latitude": 37.07583303, "longitude": 22.42083165, "month": 0, "day": 0, "articleLength" : 53175}
{"year" : -481, "title" : "Aegina", "latitude": 37.749997, "longitude": 23.4333316, "month": 0, "day": 0, "articleLength" : 34470}
{"year" : -481, "title" : "Carthage", "latitude": 36.851829926, "longitude": 10.320498718, "month": 0, "day": 0, "articleLength" : 46803}
{"year" : -481, "title" : "Crete", "latitude": 35.0, "longitude": 25.0, "month": 0, "day": 0, "articleLength" : 31990}
{"year" : -480, "title" : "Sardis", "latitude": 38.486331388, "longitude": 28.03749985, "month": 0, "day": 0, "articleLength" : 10436}
{"year" : -480, "title" : "Vale of Tempe", "latitude": 39.870329852, "longitude": 22.541331168, "month": 0, "day": 0, "articleLength" : 4622}
{"year" : -480, "title" : "Battle of Thermopylae", "latitude": 38.7999968, "longitude": 22.5333312, "month": 0, "day": 0, "articleLength" : 76391}
{"year" : -480, "title" : "Sparta", "latitude": 37.07583303, "longitude": 22.42083165, "month": 0, "day": 0, "articleLength" : 53175}
{"year" : -480, "title" : "Sparta", "latitude": 37.07583303, "longitude": 22.42083165, "month": 0, "day": 0, "articleLength" : 53175}
{"year" : -480, "title" : "Thermopylae", "latitude": 38.803163454, "longitude": 22.557664436, "month": 0, "day": 0, "articleLength" : 7700}
{"year" : -480, "title" : "Thermopylae", "latitude": 38.803163454, "longitude": 22.557664436, "month": 0, "day": 0, "articleLength" : 7700}
{"year" : -480, "title" : "Phocis", "latitude": 38.499998, "longitude": 22.249999, "month": 0, "day": 0, "articleLength" : 7281}
{"year" : -480, "title" : "Euboea", "latitude": 38.499998, "longitude": 24.0, "month": 0, "day": 0, "articleLength" : 17321}
{"year" : -480, "title" : "Boeotia", "latitude": 38.8999964, "longitude": 22.5333312, "month": 0, "day": 0, "articleLength" : 11704}
{"year" : -480, "title" : "Aegina", "latitude": 37.749997, "longitude": 23.4333316, "month": 0, "day": 0, "articleLength" : 34470}
{"year" : -480, "title" : "Euboea", "latitude": 38.499998, "longitude": 24.0, "month": 0, "day": 0, "articleLength" : 17321}
{"year" : -480, "title" : "Thermopylae", "latitude": 38.803163454, "longitude": 22.557664436, "month": 0, "day": 0, "articleLength" : 7700}
{"year" : -480, "title" : "Thermopylae", "latitude": 38.803163454, "longitude": 22.557664436, "month": 0, "day": 0, "articleLength" : 7700}
{"year" : -480, "title" : "Carthage", "latitude": 36.851829926, "longitude": 10.320498718, "month": 0, "day": 0, "articleLength" : 46803}
{"year" : -480, "title" : "Himera", "latitude": 37.9666628, "longitude": 13.8166634, "month": 0, "day": 0, "articleLength" : 21023}
{"year" : -480, "title" : "Persepolis", "latitude": 29.933996264, "longitude": 52.888163114, "month": 0, "day": 0, "articleLength" : 37065}
{"year" : -480, "title" : "Aegina", "latitude": 37.749997, "longitude": 23.4333316, "month": 0, "day": 0, "articleLength" : 34470}
{"year" : -480, "title" : "Acropolis Museum", "latitude": 37.9666628, "longitude": 23.7166638, "month": 0, "day": 0, "articleLength" : 14451}
{"year" : -479, "title" : "Arcadia", "latitude": 37.583331, "longitude": 22.249999, "month": 0, "day": 0, "articleLength" : 22314}
{"year" : -479, "title" : "Boeotia", "latitude": 38.8999964, "longitude": 22.5333312, "month": 0, "day": 0, "articleLength" : 11704}
{"year" : -479, "title" : "Potidaea", "latitude": 40.1999992, "longitude": 23.333332, "month": 0, "day": 0, "articleLength" : 3049}
{"year" : -478, "title" : "Sparta", "latitude": 37.07583303, "longitude": 22.42083165, "month": 0, "day": 0, "articleLength" : 53175}
{"year" : -478, "title" : "Sparta", "latitude": 37.07583303, "longitude": 22.42083165, "month": 0, "day": 0, "articleLength" : 53175}
{"year" : -478, "title" : "Qufu", "latitude": 35.5999976, "longitude": 116.9833294, "month": 0, "day": 0, "articleLength" : 14109}
{"year" : -477, "title" : "Sparta", "latitude": 37.07583303, "longitude": 22.42083165, "month": 0, "day": 0, "articleLength" : 53175}
{"year" : -477, "title" : "Aegean Sea", "latitude": 36.4666648, "longitude": 22.9499962, "month": 0, "day": 0, "articleLength" : 12784}
{"year" : -477, "title" : "Delos", "latitude": 37.389331776, "longitude": 25.269332256, "month": 0, "day": 0, "articleLength" : 11360}
{"year" : -477, "title" : "Veii", "latitude": 42.020999916, "longitude": 12.40083173, "month": 0, "day": 0, "articleLength" : 14188}
{"year" : -476, "title" : "Sparta", "latitude": 37.07583303, "longitude": 22.42083165, "month": 0, "day": 0, "articleLength" : 53175}
{"year" : -476, "title" : "Arcadia", "latitude": 37.583331, "longitude": 22.249999, "month": 0, "day": 0, "articleLength" : 22314}
{"year" : -475, "title" : "Skyros", "latitude": 38.8999964, "longitude": 24.5499978, "month": 0, "day": 0, "articleLength" : 3754}
{"year" : -475, "title" : "Thasos", "latitude": 40.68749725, "longitude": 24.653164054, "month": 0, "day": 0, "articleLength" : 21930}
{"year" : -474, "title" : "Cumae", "latitude": 40.838496646, "longitude": 14.053499786, "month": 0, "day": 0, "articleLength" : 7564}
{"year" : -474, "title" : "Italy", "latitude": 41.8999964, "longitude": 12.4833314, "month": 0, "day": 0, "articleLength" : 147681}
{"year" : -474, "title" : "Ischia", "latitude": 40.7313, "longitude": 13.8957, "month": 0, "day": 0, "articleLength" : 24298}
{"year" : -474, "title" : "India", "latitude": 21.0, "longitude": 78.0, "month": 0, "day": 0, "articleLength" : 132382}
{"year" : -472, "title" : "Euboea", "latitude": 38.499998, "longitude": 24.0, "month": 0, "day": 0, "articleLength" : 17321}
{"year" : -470, "title" : "Sparta", "latitude": 37.07583303, "longitude": 22.42083165, "month": 0, "day": 0, "articleLength" : 53175}
{"year" : -470, "title" : "Temple of Zeus", "latitude": 37.635997456, "longitude": 21.624664168, "month": 0, "day": 0, "articleLength" : 8963}
{"year" : -470, "title" : "Olympia, Greece", "latitude": 37.636164122, "longitude": 21.6249975, "month": 0, "day": 0, "articleLength" : 20444}
{"year" : -470, "title" : "Archaeological Museum of Olympia", "latitude": 37.6333308, "longitude": 21.6166642, "month": 0, "day": 0, "articleLength" : 3456}
{"year" : -470, "title" : "Pythian Games", "latitude": 38.4666648, "longitude": 22.4833314, "month": 0, "day": 0, "articleLength" : 6507}
{"year" : -470, "title" : "Delphi Archaeological Museum", "latitude": 38.4801, "longitude": 22.4997, "month": 0, "day": 0, "articleLength" : 3979}
{"year" : -468, "title" : "Sparta", "latitude": 37.07583303, "longitude": 22.42083165, "month": 0, "day": 0, "articleLength" : 53175}
{"year" : -468, "title" : "Arcadia", "latitude": 37.583331, "longitude": 22.249999, "month": 0, "day": 0, "articleLength" : 22314}
{"year" : -468, "title" : "Tiryns", "latitude": 37.592997628, "longitude": 22.793163494, "month": 0, "day": 0, "articleLength" : 12491}
{"year" : -466, "title" : "Phaselis", "latitude": 36.52083125, "longitude": 30.551331128, "month": 0, "day": 0, "articleLength" : 4400}
{"year" : -466, "title" : "Apulia", "latitude": 41.005166646, "longitude": 16.507664636, "month": 0, "day": 0, "articleLength" : 17450}
{"year" : -465, "title" : "Thasos", "latitude": 40.68749725, "longitude": 24.653164054, "month": 0, "day": 0, "articleLength" : 21930}
{"year" : -465, "title" : "Ancient Agora of Athens", "latitude": 37.97166278, "longitude": 23.720163786, "month": 0, "day": 0, "articleLength" : 7263}
{"year" : -464, "title" : "Sparta", "latitude": 37.07583303, "longitude": 22.42083165, "month": 0, "day": 0, "articleLength" : 53175}
{"year" : -464, "title" : "Messenia", "latitude": 37.249999, "longitude": 21.83333, "month": 0, "day": 0, "articleLength" : 9970}
{"year" : -464, "title" : "Ithome", "latitude": 37.18499926, "longitude": 21.92166298, "month": 0, "day": 0, "articleLength" : 1328}
{"year" : -464, "title" : "Libya", "latitude": 27.4, "longitude": 17.6, "month": 0, "day": 0, "articleLength" : 101182}
{"year" : -463, "title" : "Thasos", "latitude": 40.68749725, "longitude": 24.653164054, "month": 0, "day": 0, "articleLength" : 21930}
{"year" : -462, "title" : "Sparta", "latitude": 37.07583303, "longitude": 22.42083165, "month": 0, "day": 0, "articleLength" : 53175}
{"year" : -462, "title" : "Ithome", "latitude": 37.18499926, "longitude": 21.92166298, "month": 0, "day": 0, "articleLength" : 1328}
{"year" : -462, "title" : "Messenia", "latitude": 37.249999, "longitude": 21.83333, "month": 0, "day": 0, "articleLength" : 9970}
{"year" : -462, "title" : "Sparta", "latitude": 37.07583303, "longitude": 22.42083165, "month": 0, "day": 0, "articleLength" : 53175}
{"year" : -462, "title" : "Areopagus", "latitude": 37.96999612, "longitude": 23.72083045, "month": 0, "day": 0, "articleLength" : 5509}
{"year" : -462, "title" : "Mycenae", "latitude": 37.730833, "longitude": 22.756111, "month": 0, "day": 0, "articleLength" : 34433}
{"year" : -461, "title" : "Sparta", "latitude": 37.07583303, "longitude": 22.42083165, "month": 0, "day": 0, "articleLength" : 53175}
{"year" : -461, "title" : "Areopagus", "latitude": 37.96999612, "longitude": 23.72083045, "month": 0, "day": 0, "articleLength" : 5509}
{"year" : -461, "title" : "Boeotia", "latitude": 38.8999964, "longitude": 22.5333312, "month": 0, "day": 0, "articleLength" : 11704}
{"year" : -460, "title" : "Apadana", "latitude": 29.935, "longitude": 52.89, "month": 0, "day": 0, "articleLength" : 5223}
{"year" : -460, "title" : "Persepolis", "latitude": 29.933996264, "longitude": 52.888163114, "month": 0, "day": 0, "articleLength" : 37065}
{"year" : -460, "title" : "Sparta", "latitude": 37.07583303, "longitude": 22.42083165, "month": 0, "day": 0, "articleLength" : 53175}
{"year" : -460, "title" : "Sparta", "latitude": 37.07583303, "longitude": 22.42083165, "month": 0, "day": 0, "articleLength" : 53175}
{"year" : -460, "title" : "Tusculum", "latitude": 41.798246, "longitude": 12.710716, "month": 0, "day": 0, "articleLength" : 15528}
{"year" : -460, "title" : "Thasos", "latitude": 40.68749725, "longitude": 24.653164054, "month": 0, "day": 0, "articleLength" : 21930}
{"year" : -460, "title" : "Ancient Agora of Athens", "latitude": 37.97166278, "longitude": 23.720163786, "month": 0, "day": 0, "articleLength" : 7263}
{"year" : -460, "title" : "Italy", "latitude": 41.8999964, "longitude": 12.4833314, "month": 0, "day": 0, "articleLength" : 147681}
{"year" : -460, "title" : "Italy", "latitude": 41.8999964, "longitude": 12.4833314, "month": 0, "day": 0, "articleLength" : 147681}
{"year" : -460, "title" : "Temple of Zeus", "latitude": 37.635997456, "longitude": 21.624664168, "month": 0, "day": 0, "articleLength" : 8963}
{"year" : -459, "title" : "Babylon", "latitude": 32.535164526, "longitude": 44.41916499, "month": 0, "day": 0, "articleLength" : 33695}
{"year" : -459, "title" : "Tusculum", "latitude": 41.798246, "longitude": 12.710716, "month": 0, "day": 0, "articleLength" : 15528}
{"year" : -459, "title" : "Morgantina", "latitude": 37.4333316, "longitude": 14.4916647, "month": 0, "day": 0, "articleLength" : 12276}
{"year" : -458, "title" : "Sparta", "latitude": 37.07583303, "longitude": 22.42083165, "month": 0, "day": 0, "articleLength" : 53175}
{"year" : -458, "title" : "Aegina", "latitude": 37.749997, "longitude": 23.4333316, "month": 0, "day": 0, "articleLength" : 34470}
{"year" : -457, "title" : "Sparta", "latitude": 37.07583303, "longitude": 22.42083165, "month": 0, "day": 0, "articleLength" : 53175}
{"year" : -457, "title" : "Boeotia", "latitude": 38.8999964, "longitude": 22.5333312, "month": 0, "day": 0, "articleLength" : 11704}
{"year" : -457, "title" : "Phocis", "latitude": 38.499998, "longitude": 22.249999, "month": 0, "day": 0, "articleLength" : 7281}
{"year" : -457, "title" : "Peloponnese", "latitude": 37.343165294, "longitude": 22.351331928, "month": 0, "day": 0, "articleLength" : 15604}
{"year" : -457, "title" : "Phocis", "latitude": 38.499998, "longitude": 22.249999, "month": 0, "day": 0, "articleLength" : 7281}
{"year" : -457, "title" : "Aegina", "latitude": 37.749997, "longitude": 23.4333316, "month": 0, "day": 0, "articleLength" : 34470}
{"year" : -457, "title" : "Aegina", "latitude": 37.749997, "longitude": 23.4333316, "month": 0, "day": 0, "articleLength" : 34470}
{"year" : -457, "title" : "Thasos", "latitude": 40.68749725, "longitude": 24.653164054, "month": 0, "day": 0, "articleLength" : 21930}
{"year" : -455, "title" : "Sparta", "latitude": 37.07583303, "longitude": 22.42083165, "month": 0, "day": 0, "articleLength" : 53175}
{"year" : -455, "title" : "Nile Delta", "latitude": 30.8999964, "longitude": 31.1166662, "month": 0, "day": 0, "articleLength" : 8087}
{"year" : -454, "title" : "Achaea", "latitude": 38.083333, "longitude": 21.8499966, "month": 0, "day": 0, "articleLength" : 21910}
{"year" : -454, "title" : "Sicyon", "latitude": 37.984104, "longitude": 22.711145, "month": 0, "day": 0, "articleLength" : 6505}
{"year" : -454, "title" : "Delos", "latitude": 37.389331776, "longitude": 25.269332256, "month": 0, "day": 0, "articleLength" : 11360}
{"year" : -454, "title" : "Delos", "latitude": 37.389331776, "longitude": 25.269332256, "month": 0, "day": 0, "articleLength" : 11360}
{"year" : -454, "title" : "Segesta", "latitude": 37.9333296, "longitude": 12.83333, "month": 0, "day": 0, "articleLength" : 5504}
{"year" : -454, "title" : "Selinunte", "latitude": 37.583331, "longitude": 12.8166634, "month": 0, "day": 0, "articleLength" : 21102}
{"year" : -454, "title" : "Tyrrhenian Sea", "latitude": 44.0166666, "longitude": 9.8499966, "month": 0, "day": 0, "articleLength" : 5371}
{"year" : -453, "title" : "Achaea", "latitude": 38.083333, "longitude": 21.8499966, "month": 0, "day": 0, "articleLength" : 21910}
{"year" : -451, "title" : "Sparta", "latitude": 37.07583303, "longitude": 22.42083165, "month": 0, "day": 0, "articleLength" : 53175}
{"year" : -450, "title" : "Nile Delta", "latitude": 30.8999964, "longitude": 31.1166662, "month": 0, "day": 0, "articleLength" : 8087}
{"year" : -450, "title" : "Thasos", "latitude": 40.68749725, "longitude": 24.653164054, "month": 0, "day": 0, "articleLength" : 21930}
{"year" : -450, "title" : "Italy", "latitude": 41.8999964, "longitude": 12.4833314, "month": 0, "day": 0, "articleLength" : 147681}
{"year" : -450, "title" : "Paros", "latitude": 37.083333, "longitude": 25.1499994, "month": 0, "day": 0, "articleLength" : 15904}
{"year" : -450, "title" : "New York", "latitude": 43.0, "longitude": -75.0, "month": 0, "day": 0, "articleLength" : 94404}
{"year" : -449, "title" : "Nile Delta", "latitude": 30.8999964, "longitude": 31.1166662, "month": 0, "day": 0, "articleLength" : 8087}
{"year" : -449, "title" : "Aegean Sea", "latitude": 36.4666648, "longitude": 22.9499962, "month": 0, "day": 0, "articleLength" : 12784}
{"year" : -449, "title" : "Sparta", "latitude": 37.07583303, "longitude": 22.42083165, "month": 0, "day": 0, "articleLength" : 53175}
{"year" : -449, "title" : "Temple of Hephaestus", "latitude": 37.9666628, "longitude": 23.7166638, "month": 0, "day": 0, "articleLength" : 10598}
{"year" : -449, "title" : "Phocis", "latitude": 38.499998, "longitude": 22.249999, "month": 0, "day": 0, "articleLength" : 7281}
{"year" : -448, "title" : "Phocis", "latitude": 38.499998, "longitude": 22.249999, "month": 0, "day": 0, "articleLength" : 7281}
{"year" : -448, "title" : "Parthenon", "latitude": 37.97025, "longitude": 23.72247, "month": 0, "day": 0, "articleLength" : 51369}
{"year" : -447, "title" : "Gallipoli", "latitude": 40.366998532, "longitude": 26.452998188, "month": 0, "day": 0, "articleLength" : 14818}
{"year" : -447, "title" : "Boeotia", "latitude": 38.8999964, "longitude": 22.5333312, "month": 0, "day": 0, "articleLength" : 11704}
{"year" : -447, "title" : "Boeotia", "latitude": 38.8999964, "longitude": 22.5333312, "month": 0, "day": 0, "articleLength" : 11704}
{"year" : -447, "title" : "Boeotia", "latitude": 38.8999964, "longitude": 22.5333312, "month": 0, "day": 0, "articleLength" : 11704}
{"year" : -447, "title" : "Phocis", "latitude": 38.499998, "longitude": 22.249999, "month": 0, "day": 0, "articleLength" : 7281}
{"year" : -446, "title" : "Achaea", "latitude": 38.083333, "longitude": 21.8499966, "month": 0, "day": 0, "articleLength" : 21910}
{"year" : -446, "title" : "Euboea", "latitude": 38.499998, "longitude": 24.0, "month": 0, "day": 0, "articleLength" : 17321}
{"year" : -446, "title" : "Sparta", "latitude": 37.07583303, "longitude": 22.42083165, "month": 0, "day": 0, "articleLength" : 53175}
{"year" : -446, "title" : "Arcadia", "latitude": 37.583331, "longitude": 22.249999, "month": 0, "day": 0, "articleLength" : 22314}
{"year" : -445, "title" : "Sparta", "latitude": 37.07583303, "longitude": 22.42083165, "month": 0, "day": 0, "articleLength" : 53175}
{"year" : -445, "title" : "Achaea", "latitude": 38.083333, "longitude": 21.8499966, "month": 0, "day": 0, "articleLength" : 21910}
{"year" : -445, "title" : "Aegina", "latitude": 37.749997, "longitude": 23.4333316, "month": 0, "day": 0, "articleLength" : 34470}
{"year" : -445, "title" : "Judea", "latitude": 31.692663896, "longitude": 35.303832118, "month": 0, "day": 0, "articleLength" : 15068}
{"year" : -443, "title" : "Sybaris", "latitude": 39.749997, "longitude": 16.4666648, "month": 0, "day": 0, "articleLength" : 12074}
{"year" : -441, "title" : "China", "latitude": 35.0, "longitude": 105.0, "month": 0, "day": 0, "articleLength" : 67490}
{"year" : -440, "title" : "Miletus", "latitude": 37.530233, "longitude": 27.278369, "month": 0, "day": 0, "articleLength" : 20830}
{"year" : -440, "title" : "Sparta", "latitude": 37.07583303, "longitude": 22.42083165, "month": 0, "day": 0, "articleLength" : 53175}
{"year" : -440, "title" : "China", "latitude": 35.0, "longitude": 105.0, "month": 0, "day": 0, "articleLength" : 67490}
{"year" : -438, "title" : "Parthenon", "latitude": 37.97025, "longitude": 23.72247, "month": 0, "day": 0, "articleLength" : 51369}
{"year" : -438, "title" : "Parthenon", "latitude": 37.97025, "longitude": 23.72247, "month": 0, "day": 0, "articleLength" : 51369}
{"year" : -438, "title" : "London", "latitude": 51.504331316, "longitude": -0.123166174, "month": 0, "day": 0, "articleLength" : 154718}
{"year" : -438, "title" : "Parthenon", "latitude": 37.97025, "longitude": 23.72247, "month": 0, "day": 0, "articleLength" : 51369}
{"year" : -438, "title" : "London", "latitude": 51.504331316, "longitude": -0.123166174, "month": 0, "day": 0, "articleLength" : 154718}
{"year" : -437, "title" : "Black Sea", "latitude": 44.0, "longitude": 35.0, "month": 0, "day": 0, "articleLength" : 47922}
{"year" : -436, "title" : "Black Sea", "latitude": 44.0, "longitude": 35.0, "month": 0, "day": 0, "articleLength" : 47922}
{"year" : -436, "title" : "Potidaea", "latitude": 40.1999992, "longitude": 23.333332, "month": 0, "day": 0, "articleLength" : 3049}
{"year" : -435, "title" : "Corfu", "latitude": 39.666664, "longitude": 19.749997, "month": 0, "day": 0, "articleLength" : 94007}
{"year" : -435, "title" : "Temple of Zeus", "latitude": 37.635997456, "longitude": 21.624664168, "month": 0, "day": 0, "articleLength" : 8963}
{"year" : -434, "title" : "Sparta", "latitude": 37.07583303, "longitude": 22.42083165, "month": 0, "day": 0, "articleLength" : 53175}
{"year" : -434, "title" : "Potidaea", "latitude": 40.1999992, "longitude": 23.333332, "month": 0, "day": 0, "articleLength" : 3049}
{"year" : -433, "title" : "Corfu", "latitude": 39.666664, "longitude": 19.749997, "month": 0, "day": 0, "articleLength" : 94007}
{"year" : -433, "title" : "Ionian Sea", "latitude": 36.5666644, "longitude": 21.1333328, "month": 0, "day": 0, "articleLength" : 5334}
{"year" : -433, "title" : "Potidaea", "latitude": 40.1999992, "longitude": 23.333332, "month": 0, "day": 0, "articleLength" : 3049}
{"year" : -433, "title" : "Sparta", "latitude": 37.07583303, "longitude": 22.42083165, "month": 0, "day": 0, "articleLength" : 53175}
{"year" : -433, "title" : "Aegina", "latitude": 37.749997, "longitude": 23.4333316, "month": 0, "day": 0, "articleLength" : 34470}
{"year" : -433, "title" : "Italy", "latitude": 41.8999964, "longitude": 12.4833314, "month": 0, "day": 0, "articleLength" : 147681}
{"year" : -433, "title" : "Hubei", "latitude": 30.9666628, "longitude": 112.2333324, "month": 0, "day": 0, "articleLength" : 30250}
{"year" : -433, "title" : "Hubei Provincial Museum", "latitude": 30.5583311, "longitude": 114.355331912, "month": 0, "day": 0, "articleLength" : 2116}
{"year" : -433, "title" : "Wuhan", "latitude": 30.570164386, "longitude": 114.27416557, "month": 0, "day": 0, "articleLength" : 54148}
{"year" : -432, "title" : "Potidaea", "latitude": 40.1999992, "longitude": 23.333332, "month": 0, "day": 0, "articleLength" : 3049}
{"year" : -432, "title" : "Gulf of Corinth", "latitude": 38.20916583, "longitude": 22.539331176, "month": 0, "day": 0, "articleLength" : 5141}
{"year" : -432, "title" : "Parthenon", "latitude": 37.97025, "longitude": 23.72247, "month": 0, "day": 0, "articleLength" : 51369}
{"year" : -431, "title" : "Plataea", "latitude": 38.209332496, "longitude": 23.266832266, "month": 0, "day": 0, "articleLength" : 11295}
{"year" : -431, "title" : "Boeotia", "latitude": 38.8999964, "longitude": 22.5333312, "month": 0, "day": 0, "articleLength" : 11704}
{"year" : -431, "title" : "Italy", "latitude": 41.8999964, "longitude": 12.4833314, "month": 0, "day": 0, "articleLength" : 147681}
{"year" : -431, "title" : "Aegina", "latitude": 37.749997, "longitude": 23.4333316, "month": 0, "day": 0, "articleLength" : 34470}
{"year" : -430, "title" : "Sparta", "latitude": 37.07583303, "longitude": 22.42083165, "month": 0, "day": 0, "articleLength" : 53175}
{"year" : -430, "title" : "Potidaea", "latitude": 40.1999992, "longitude": 23.333332, "month": 0, "day": 0, "articleLength" : 3049}
{"year" : -429, "title" : "Olynthus", "latitude": 40.275665564, "longitude": 23.335665324, "month": 0, "day": 0, "articleLength" : 11073}
{"year" : -429, "title" : "Sparta", "latitude": 37.07583303, "longitude": 22.42083165, "month": 0, "day": 0, "articleLength" : 53175}
{"year" : -428, "title" : "Sparta", "latitude": 37.07583303, "longitude": 22.42083165, "month": 0, "day": 0, "articleLength" : 53175}
{"year" : -428, "title" : "Cumae", "latitude": 40.838496646, "longitude": 14.053499786, "month": 0, "day": 0, "articleLength" : 7564}
{"year" : -428, "title" : "Italy", "latitude": 41.8999964, "longitude": 12.4833314, "month": 0, "day": 0, "articleLength" : 147681}
{"year" : -427, "title" : "Sparta", "latitude": 37.07583303, "longitude": 22.42083165, "month": 0, "day": 0, "articleLength" : 53175}
{"year" : -427, "title" : "Plataea", "latitude": 38.209332496, "longitude": 23.266832266, "month": 0, "day": 0, "articleLength" : 11295}
{"year" : -426, "title" : "Ambracia", "latitude": 39.158, "longitude": 20.987, "month": 0, "day": 0, "articleLength" : 4844}
{"year" : -426, "title" : "Ionian Sea", "latitude": 36.5666644, "longitude": 21.1333328, "month": 0, "day": 0, "articleLength" : 5334}
{"year" : -426, "title" : "Gulf of Corinth", "latitude": 38.20916583, "longitude": 22.539331176, "month": 0, "day": 0, "articleLength" : 5141}
{"year" : -425, "title" : "Pylos", "latitude": 37.028, "longitude": 21.695, "month": 0, "day": 0, "articleLength" : 11957}
{"year" : -425, "title" : "Sparta", "latitude": 37.07583303, "longitude": 22.42083165, "month": 0, "day": 0, "articleLength" : 53175}
{"year" : -425, "title" : "Sphacteria", "latitude": 36.916663, "longitude": 21.6499974, "month": 0, "day": 0, "articleLength" : 1755}
{"year" : -425, "title" : "China", "latitude": 35.0, "longitude": 105.0, "month": 0, "day": 0, "articleLength" : 67490}
{"year" : -424, "title" : "Babylon", "latitude": 32.535164526, "longitude": 44.41916499, "month": 0, "day": 0, "articleLength" : 33695}
{"year" : -424, "title" : "Sparta", "latitude": 37.07583303, "longitude": 22.42083165, "month": 0, "day": 0, "articleLength" : 53175}
{"year" : -424, "title" : "Boeotia", "latitude": 38.8999964, "longitude": 22.5333312, "month": 0, "day": 0, "articleLength" : 11704}
{"year" : -424, "title" : "Sicyon", "latitude": 37.984104, "longitude": 22.711145, "month": 0, "day": 0, "articleLength" : 6505}
{"year" : -424, "title" : "Sparta", "latitude": 37.07583303, "longitude": 22.42083165, "month": 0, "day": 0, "articleLength" : 53175}
{"year" : -423, "title" : "Sparta", "latitude": 37.07583303, "longitude": 22.42083165, "month": 0, "day": 0, "articleLength" : 53175}
{"year" : -422, "title" : "Sparta", "latitude": 37.07583303, "longitude": 22.42083165, "month": 0, "day": 0, "articleLength" : 53175}
{"year" : -421, "title" : "Sparta", "latitude": 37.07583303, "longitude": 22.42083165, "month": 0, "day": 0, "articleLength" : 53175}
{"year" : -421, "title" : "Boeotia", "latitude": 38.8999964, "longitude": 22.5333312, "month": 0, "day": 0, "articleLength" : 11704}
{"year" : -421, "title" : "Cumae", "latitude": 40.838496646, "longitude": 14.053499786, "month": 0, "day": 0, "articleLength" : 7564}
{"year" : -421, "title" : "Italy", "latitude": 41.8999964, "longitude": 12.4833314, "month": 0, "day": 0, "articleLength" : 147681}
{"year" : -420, "title" : "Sparta", "latitude": 37.07583303, "longitude": 22.42083165, "month": 0, "day": 0, "articleLength" : 53175}
{"year" : -420, "title" : "Boeotia", "latitude": 38.8999964, "longitude": 22.5333312, "month": 0, "day": 0, "articleLength" : 11704}
{"year" : -419, "title" : "Sparta", "latitude": 37.07583303, "longitude": 22.42083165, "month": 0, "day": 0, "articleLength" : 53175}
{"year" : -418, "title" : "Sparta", "latitude": 37.07583303, "longitude": 22.42083165, "month": 0, "day": 0, "articleLength" : 53175}
{"year" : -418, "title" : "Carthage", "latitude": 36.851829926, "longitude": 10.320498718, "month": 0, "day": 0, "articleLength" : 46803}
{"year" : -416, "title" : "Segesta", "latitude": 37.9333296, "longitude": 12.83333, "month": 0, "day": 0, "articleLength" : 5504}
{"year" : -416, "title" : "Sparta", "latitude": 37.07583303, "longitude": 22.42083165, "month": 0, "day": 0, "articleLength" : 53175}
{"year" : -415, "title" : "Sparta", "latitude": 37.07583303, "longitude": 22.42083165, "month": 0, "day": 0, "articleLength" : 53175}
{"year" : -414, "title" : "Sparta", "latitude": 37.07583303, "longitude": 22.42083165, "month": 0, "day": 0, "articleLength" : 53175}
{"year" : -413, "title" : "Sparta", "latitude": 37.07583303, "longitude": 22.42083165, "month": 0, "day": 0, "articleLength" : 53175}
{"year" : -412, "title" : "Sparta", "latitude": 37.07583303, "longitude": 22.42083165, "month": 0, "day": 0, "articleLength" : 53175}
{"year" : -412, "title" : "Miletus", "latitude": 37.530233, "longitude": 27.278369, "month": 0, "day": 0, "articleLength" : 20830}
{"year" : -412, "title" : "Sparta", "latitude": 37.07583303, "longitude": 22.42083165, "month": 0, "day": 0, "articleLength" : 53175}
{"year" : -411, "title" : "Sparta", "latitude": 37.07583303, "longitude": 22.42083165, "month": 0, "day": 0, "articleLength" : 53175}
{"year" : -411, "title" : "Sardis", "latitude": 38.486331388, "longitude": 28.03749985, "month": 0, "day": 0, "articleLength" : 10436}
{"year" : -410, "title" : "Sparta", "latitude": 37.07583303, "longitude": 22.42083165, "month": 0, "day": 0, "articleLength" : 53175}
{"year" : -410, "title" : "Sea of Marmara", "latitude": 40.720163786, "longitude": 28.221499114, "month": 0, "day": 0, "articleLength" : 7636}
{"year" : -410, "title" : "Black Sea", "latitude": 44.0, "longitude": 35.0, "month": 0, "day": 0, "articleLength" : 47922}
{"year" : -410, "title" : "Carthage", "latitude": 36.851829926, "longitude": 10.320498718, "month": 0, "day": 0, "articleLength" : 46803}
{"year" : -410, "title" : "Acropolis Museum", "latitude": 37.9666628, "longitude": 23.7166638, "month": 0, "day": 0, "articleLength" : 14451}
{"year" : -409, "title" : "Bosporan Kingdom", "latitude": 45.255998976, "longitude": 37.037333184, "month": 0, "day": 0, "articleLength" : 14584}
{"year" : -409, "title" : "Black Sea", "latitude": 44.0, "longitude": 35.0, "month": 0, "day": 0, "articleLength" : 47922}
{"year" : -409, "title" : "Ephesus", "latitude": 37.937162918, "longitude": 27.337831982, "month": 0, "day": 0, "articleLength" : 33946}
{"year" : -409, "title" : "Sparta", "latitude": 37.07583303, "longitude": 22.42083165, "month": 0, "day": 0, "articleLength" : 53175}
{"year" : -409, "title" : "Carthage", "latitude": 36.851829926, "longitude": 10.320498718, "month": 0, "day": 0, "articleLength" : 46803}
{"year" : -409, "title" : "Selinunte", "latitude": 37.583331, "longitude": 12.8166634, "month": 0, "day": 0, "articleLength" : 21102}
{"year" : -409, "title" : "Himera", "latitude": 37.9666628, "longitude": 13.8166634, "month": 0, "day": 0, "articleLength" : 21023}
{"year" : -408, "title" : "Sparta", "latitude": 37.07583303, "longitude": 22.42083165, "month": 0, "day": 0, "articleLength" : 53175}
{"year" : -408, "title" : "Cappadocia", "latitude": 38.668997324, "longitude": 34.836829986, "month": 0, "day": 0, "articleLength" : 23148}
{"year" : -408, "title" : "Sardis", "latitude": 38.486331388, "longitude": 28.03749985, "month": 0, "day": 0, "articleLength" : 10436}
{"year" : -408, "title" : "Ephesus", "latitude": 37.937162918, "longitude": 27.337831982, "month": 0, "day": 0, "articleLength" : 33946}
{"year" : -408, "title" : "Himera", "latitude": 37.9666628, "longitude": 13.8166634, "month": 0, "day": 0, "articleLength" : 21023}
{"year" : -407, "title" : "Thasos", "latitude": 40.68749725, "longitude": 24.653164054, "month": 0, "day": 0, "articleLength" : 21930}
{"year" : -407, "title" : "Sparta", "latitude": 37.07583303, "longitude": 22.42083165, "month": 0, "day": 0, "articleLength" : 53175}
{"year" : -407, "title" : "Ephesus", "latitude": 37.937162918, "longitude": 27.337831982, "month": 0, "day": 0, "articleLength" : 33946}
{"year" : -407, "title" : "Thracian Chersonese", "latitude": 40.3499986, "longitude": 26.4666648, "month": 0, "day": 0, "articleLength" : 6083}
{"year" : -407, "title" : "Aegospotami", "latitude": 40.3499986, "longitude": 26.625164166, "month": 0, "day": 0, "articleLength" : 2234}
{"year" : -406, "title" : "Sparta", "latitude": 37.07583303, "longitude": 22.42083165, "month": 0, "day": 0, "articleLength" : 53175}
{"year" : -406, "title" : "Lesbos", "latitude": 39.166666, "longitude": 26.333332, "month": 0, "day": 0, "articleLength" : 16158}
{"year" : -406, "title" : "Veii", "latitude": 42.020999916, "longitude": 12.40083173, "month": 0, "day": 0, "articleLength" : 14188}
{"year" : -405, "title" : "Sparta", "latitude": 37.07583303, "longitude": 22.42083165, "month": 0, "day": 0, "articleLength" : 53175}
{"year" : -405, "title" : "Sea of Marmara", "latitude": 40.720163786, "longitude": 28.221499114, "month": 0, "day": 0, "articleLength" : 7636}
{"year" : -405, "title" : "Erechtheum", "latitude": 37.96999612, "longitude": 23.72249711, "month": 0, "day": 0, "articleLength" : 9546}
{"year" : -404, "title" : "Aegean Sea", "latitude": 36.4666648, "longitude": 22.9499962, "month": 0, "day": 0, "articleLength" : 12784}
{"year" : -404, "title" : "Aegospotami", "latitude": 40.3499986, "longitude": 26.625164166, "month": 0, "day": 0, "articleLength" : 2234}
{"year" : -404, "title" : "Babylon", "latitude": 32.535164526, "longitude": 44.41916499, "month": 0, "day": 0, "articleLength" : 33695}
{"year" : -403, "title" : "Sparta", "latitude": 37.07583303, "longitude": 22.42083165, "month": 0, "day": 0, "articleLength" : 53175}
{"year" : -403, "title" : "China", "latitude": 35.0, "longitude": 105.0, "month": 0, "day": 0, "articleLength" : 67490}
{"year" : -402, "title" : "Larissa", "latitude": 39.624330836, "longitude": 22.416665, "month": 0, "day": 0, "articleLength" : 19102}
{"year" : -401, "title" : "Taurus Mountains", "latitude": 37.0, "longitude": 33.0, "month": 0, "day": 0, "articleLength" : 4798}
{"year" : -401, "title" : "Battle of Cunaxa", "latitude": 33.3166654, "longitude": 44.0666664, "month": 0, "day": 0, "articleLength" : 6527}
{"year" : -401, "title" : "Sparta", "latitude": 37.07583303, "longitude": 22.42083165, "month": 0, "day": 0, "articleLength" : 53175}
{"year" : -401, "title" : "China", "latitude": 35.0, "longitude": 105.0, "month": 0, "day": 0, "articleLength" : 67490}
{"year" : -400, "title" : "Greece", "latitude": 39.0, "longitude": 22.0, "month": 0, "day": 0, "articleLength" : 112185}
{"year" : -400, "title" : "Sparta", "latitude": 37.07583303, "longitude": 22.42083165, "month": 0, "day": 0, "articleLength" : 53175}
{"year" : -400, "title" : "Sparta", "latitude": 37.07583303, "longitude": 22.42083165, "month": 0, "day": 0, "articleLength" : 53175}
{"year" : -400, "title" : "Malta", "latitude": 35.8833298, "longitude": 14.499998, "month": 0, "day": 0, "articleLength" : 139223}
{"year" : -400, "title" : "London", "latitude": 51.504331316, "longitude": -0.123166174, "month": 0, "day": 0, "articleLength" : 154718}
{"year" : -400, "title" : "La Venta", "latitude": 18.103299, "longitude": -94.04019217, "month": 0, "day": 0, "articleLength" : 20261}
{"year" : -400, "title" : "San Lorenzo Tenochtitl√°n", "latitude": 17.752163658, "longitude": -94.755996976, "month": 0, "day": 0, "articleLength" : 6499}
{"year" : -400, "title" : "Royal Ontario Museum", "latitude": 43.667476, "longitude": -79.39417, "month": 0, "day": 0, "articleLength" : 30902}
{"year" : -399, "title" : "Sparta", "latitude": 37.07583303, "longitude": 22.42083165, "month": 0, "day": 0, "articleLength" : 53175}
{"year" : -399, "title" : "Mendes", "latitude": 30.95499618, "longitude": 31.509497962, "month": 0, "day": 0, "articleLength" : 13036}
{"year" : -398, "title" : "Carthage", "latitude": 36.851829926, "longitude": 10.320498718, "month": 0, "day": 0, "articleLength" : 46803}
{"year" : -398, "title" : "Motya", "latitude": 37.867663196, "longitude": 12.467831462, "month": 0, "day": 0, "articleLength" : 9953}
{"year" : -397, "title" : "Sparta", "latitude": 37.07583303, "longitude": 22.42083165, "month": 0, "day": 0, "articleLength" : 53175}
{"year" : -397, "title" : "Motya", "latitude": 37.867663196, "longitude": 12.467831462, "month": 0, "day": 0, "articleLength" : 9953}
{"year" : -396, "title" : "Rhodes", "latitude": 36.166666, "longitude": 28.0, "month": 0, "day": 0, "articleLength" : 31811}
{"year" : -396, "title" : "Sparta", "latitude": 37.07583303, "longitude": 22.42083165, "month": 0, "day": 0, "articleLength" : 53175}
{"year" : -396, "title" : "Sardis", "latitude": 38.486331388, "longitude": 28.03749985, "month": 0, "day": 0, "articleLength" : 10436}
{"year" : -396, "title" : "Veii", "latitude": 42.020999916, "longitude": 12.40083173, "month": 0, "day": 0, "articleLength" : 14188}
{"year" : -395, "title" : "Colossae", "latitude": 37.754330316, "longitude": 29.259832294, "month": 0, "day": 0, "articleLength" : 4169}
{"year" : -395, "title" : "Sparta", "latitude": 37.07583303, "longitude": 22.42083165, "month": 0, "day": 0, "articleLength" : 53175}
{"year" : -395, "title" : "Sparta", "latitude": 37.07583303, "longitude": 22.42083165, "month": 0, "day": 0, "articleLength" : 53175}
{"year" : -395, "title" : "Boeotia", "latitude": 38.8999964, "longitude": 22.5333312, "month": 0, "day": 0, "articleLength" : 11704}
{"year" : -394, "title" : "Sparta", "latitude": 37.07583303, "longitude": 22.42083165, "month": 0, "day": 0, "articleLength" : 53175}
{"year" : -394, "title" : "Rhodes", "latitude": 36.166666, "longitude": 28.0, "month": 0, "day": 0, "articleLength" : 31811}
{"year" : -394, "title" : "Sestos", "latitude": 40.2166658, "longitude": 26.3833318, "month": 0, "day": 0, "articleLength" : 2458}
{"year" : -394, "title" : "Gulf of Corinth", "latitude": 38.20916583, "longitude": 22.539331176, "month": 0, "day": 0, "articleLength" : 5141}
{"year" : -394, "title" : "Paros", "latitude": 37.083333, "longitude": 25.1499994, "month": 0, "day": 0, "articleLength" : 15904}
{"year" : -393, "title" : "Greece", "latitude": 39.0, "longitude": 22.0, "month": 0, "day": 0, "articleLength" : 112185}
{"year" : -393, "title" : "Laconia", "latitude": 37.0, "longitude": 22.583331, "month": 0, "day": 0, "articleLength" : 10978}
{"year" : -393, "title" : "Imbros", "latitude": 40.156499374, "longitude": 25.83999664, "month": 0, "day": 0, "articleLength" : 23967}
{"year" : -393, "title" : "Lemnos", "latitude": 39.916663, "longitude": 25.249999, "month": 0, "day": 0, "articleLength" : 18568}
{"year" : -393, "title" : "Sparta", "latitude": 37.07583303, "longitude": 22.42083165, "month": 0, "day": 0, "articleLength" : 53175}
{"year" : -393, "title" : "Sicyon", "latitude": 37.984104, "longitude": 22.711145, "month": 0, "day": 0, "articleLength" : 6505}
{"year" : -393, "title" : "Boeotia", "latitude": 38.8999964, "longitude": 22.5333312, "month": 0, "day": 0, "articleLength" : 11704}
{"year" : -393, "title" : "Gulf of Corinth", "latitude": 38.20916583, "longitude": 22.539331176, "month": 0, "day": 0, "articleLength" : 5141}
{"year" : -392, "title" : "Sardis", "latitude": 38.486331388, "longitude": 28.03749985, "month": 0, "day": 0, "articleLength" : 10436}
{"year" : -392, "title" : "Sparta", "latitude": 37.07583303, "longitude": 22.42083165, "month": 0, "day": 0, "articleLength" : 53175}
{"year" : -392, "title" : "Sardis", "latitude": 38.486331388, "longitude": 28.03749985, "month": 0, "day": 0, "articleLength" : 10436}
{"year" : -392, "title" : "Chios", "latitude": 38.3999984, "longitude": 26.0166666, "month": 0, "day": 0, "articleLength" : 35772}
{"year" : -391, "title" : "Anatolia", "latitude": 39.0, "longitude": 32.0, "month": 0, "day": 0, "articleLength" : 31352}
{"year" : -391, "title" : "Sparta", "latitude": 37.07583303, "longitude": 22.42083165, "month": 0, "day": 0, "articleLength" : 53175}
{"year" : -391, "title" : "Battle of Lechaeum", "latitude": 37.934142, "longitude": 22.884225, "month": 0, "day": 0, "articleLength" : 7109}
{"year" : -391, "title" : "Arcadia", "latitude": 37.583331, "longitude": 22.249999, "month": 0, "day": 0, "articleLength" : 22314}
{"year" : -391, "title" : "Acrocorinth", "latitude": 37.886829786, "longitude": 22.868496526, "month": 0, "day": 0, "articleLength" : 3865}
{"year" : -391, "title" : "Italy", "latitude": 41.8999964, "longitude": 12.4833314, "month": 0, "day": 0, "articleLength" : 147681}
{"year" : -391, "title" : "Veii", "latitude": 42.020999916, "longitude": 12.40083173, "month": 0, "day": 0, "articleLength" : 14188}
{"year" : -390, "title" : "Italy", "latitude": 41.8999964, "longitude": 12.4833314, "month": 0, "day": 0, "articleLength" : 147681}
{"year" : -390, "title" : "Capitoline Hill", "latitude": 41.889329776, "longitude": 12.476498094, "month": 0, "day": 0, "articleLength" : 15359}
{"year" : -390, "title" : "Epidaurus", "latitude": 37.590997636, "longitude": 23.07416637, "month": 0, "day": 0, "articleLength" : 6900}
{"year" : -389, "title" : "Sparta", "latitude": 37.07583303, "longitude": 22.42083165, "month": 0, "day": 0, "articleLength" : 53175}
{"year" : -389, "title" : "Gulf of Corinth", "latitude": 38.20916583, "longitude": 22.539331176, "month": 0, "day": 0, "articleLength" : 5141}
{"year" : -389, "title" : "Rhodes", "latitude": 36.166666, "longitude": 28.0, "month": 0, "day": 0, "articleLength" : 31811}
{"year" : -388, "title" : "Sparta", "latitude": 37.07583303, "longitude": 22.42083165, "month": 0, "day": 0, "articleLength" : 53175}
{"year" : -388, "title" : "Lesbos", "latitude": 39.166666, "longitude": 26.333332, "month": 0, "day": 0, "articleLength" : 16158}
{"year" : -388, "title" : "Sparta", "latitude": 37.07583303, "longitude": 22.42083165, "month": 0, "day": 0, "articleLength" : 53175}
{"year" : -387, "title" : "Sparta", "latitude": 37.07583303, "longitude": 22.42083165, "month": 0, "day": 0, "articleLength" : 53175}
{"year" : -387, "title" : "Sparta", "latitude": 37.07583303, "longitude": 22.42083165, "month": 0, "day": 0, "articleLength" : 53175}
{"year" : -387, "title" : "Italy", "latitude": 41.8999964, "longitude": 12.4833314, "month": 0, "day": 0, "articleLength" : 147681}
{"year" : -386, "title" : "Sparta", "latitude": 37.07583303, "longitude": 22.42083165, "month": 0, "day": 0, "articleLength" : 53175}
{"year" : -386, "title" : "Handan", "latitude": 36.5999976, "longitude": 114.4833314, "month": 0, "day": 0, "articleLength" : 7395}
{"year" : -383, "title" : "Sparta", "latitude": 37.07583303, "longitude": 22.42083165, "month": 0, "day": 0, "articleLength" : 53175}
{"year" : -383, "title" : "Sparta", "latitude": 37.07583303, "longitude": 22.42083165, "month": 0, "day": 0, "articleLength" : 53175}
{"year" : -383, "title" : "Boeotia", "latitude": 38.8999964, "longitude": 22.5333312, "month": 0, "day": 0, "articleLength" : 11704}
{"year" : -382, "title" : "Sparta", "latitude": 37.07583303, "longitude": 22.42083165, "month": 0, "day": 0, "articleLength" : 53175}
{"year" : -381, "title" : "Sparta", "latitude": 37.07583303, "longitude": 22.42083165, "month": 0, "day": 0, "articleLength" : 53175}
{"year" : -381, "title" : "Greece", "latitude": 39.0, "longitude": 22.0, "month": 0, "day": 0, "articleLength" : 112185}
{"year" : -381, "title" : "Plataea", "latitude": 38.209332496, "longitude": 23.266832266, "month": 0, "day": 0, "articleLength" : 11295}
{"year" : -381, "title" : "Tusculum", "latitude": 41.798246, "longitude": 12.710716, "month": 0, "day": 0, "articleLength" : 15528}
{"year" : -380, "title" : "Sparta", "latitude": 37.07583303, "longitude": 22.42083165, "month": 0, "day": 0, "articleLength" : 53175}
{"year" : -379, "title" : "Sparta", "latitude": 37.07583303, "longitude": 22.42083165, "month": 0, "day": 0, "articleLength" : 53175}
{"year" : -379, "title" : "Boeotia", "latitude": 38.8999964, "longitude": 22.5333312, "month": 0, "day": 0, "articleLength" : 11704}
{"year" : -378, "title" : "Sparta", "latitude": 37.07583303, "longitude": 22.42083165, "month": 0, "day": 0, "articleLength" : 53175}
{"year" : -378, "title" : "Boeotia", "latitude": 38.8999964, "longitude": 22.5333312, "month": 0, "day": 0, "articleLength" : 11704}
{"year" : -378, "title" : "Carthage", "latitude": 36.851829926, "longitude": 10.320498718, "month": 0, "day": 0, "articleLength" : 46803}
{"year" : -377, "title" : "Sparta", "latitude": 37.07583303, "longitude": 22.42083165, "month": 0, "day": 0, "articleLength" : 53175}
{"year" : -376, "title" : "Sparta", "latitude": 37.07583303, "longitude": 22.42083165, "month": 0, "day": 0, "articleLength" : 53175}
{"year" : -376, "title" : "Black Sea", "latitude": 44.0, "longitude": 35.0, "month": 0, "day": 0, "articleLength" : 47922}
{"year" : -375, "title" : "Sparta", "latitude": 37.07583303, "longitude": 22.42083165, "month": 0, "day": 0, "articleLength" : 53175}
{"year" : -375, "title" : "Boeotia", "latitude": 38.8999964, "longitude": 22.5333312, "month": 0, "day": 0, "articleLength" : 11704}
{"year" : -375, "title" : "China", "latitude": 35.0, "longitude": 105.0, "month": 0, "day": 0, "articleLength" : 67490}
{"year" : -374, "title" : "Sparta", "latitude": 37.07583303, "longitude": 22.42083165, "month": 0, "day": 0, "articleLength" : 53175}
{"year" : -373, "title" : "Sparta", "latitude": 37.07583303, "longitude": 22.42083165, "month": 0, "day": 0, "articleLength" : 53175}
{"year" : -373, "title" : "Helike", "latitude": 38.218165794, "longitude": 22.126332828, "month": 0, "day": 0, "articleLength" : 15389}
{"year" : -371, "title" : "Sparta", "latitude": 37.07583303, "longitude": 22.42083165, "month": 0, "day": 0, "articleLength" : 53175}
{"year" : -371, "title" : "Boeotia", "latitude": 38.8999964, "longitude": 22.5333312, "month": 0, "day": 0, "articleLength" : 11704}
{"year" : -371, "title" : "Arcadia", "latitude": 37.583331, "longitude": 22.249999, "month": 0, "day": 0, "articleLength" : 22314}
{"year" : -371, "title" : "Sparta", "latitude": 37.07583303, "longitude": 22.42083165, "month": 0, "day": 0, "articleLength" : 53175}
{"year" : -370, "title" : "Sparta", "latitude": 37.07583303, "longitude": 22.42083165, "month": 0, "day": 0, "articleLength" : 53175}
{"year" : -370, "title" : "Sparta", "latitude": 37.07583303, "longitude": 22.42083165, "month": 0, "day": 0, "articleLength" : 53175}
{"year" : -370, "title" : "Arcadia", "latitude": 37.583331, "longitude": 22.249999, "month": 0, "day": 0, "articleLength" : 22314}
{"year" : -370, "title" : "Arcadia", "latitude": 37.583331, "longitude": 22.249999, "month": 0, "day": 0, "articleLength" : 22314}
{"year" : -369, "title" : "Sparta", "latitude": 37.07583303, "longitude": 22.42083165, "month": 0, "day": 0, "articleLength" : 53175}
{"year" : -369, "title" : "Laconia", "latitude": 37.0, "longitude": 22.583331, "month": 0, "day": 0, "articleLength" : 10978}
{"year" : -369, "title" : "Arcadia", "latitude": 37.583331, "longitude": 22.249999, "month": 0, "day": 0, "articleLength" : 22314}
{"year" : -369, "title" : "Messenia", "latitude": 37.249999, "longitude": 21.83333, "month": 0, "day": 0, "articleLength" : 9970}
{"year" : -369, "title" : "Ithome", "latitude": 37.18499926, "longitude": 21.92166298, "month": 0, "day": 0, "articleLength" : 1328}
{"year" : -369, "title" : "Sparta", "latitude": 37.07583303, "longitude": 22.42083165, "month": 0, "day": 0, "articleLength" : 53175}
{"year" : -369, "title" : "Larissa", "latitude": 39.624330836, "longitude": 22.416665, "month": 0, "day": 0, "articleLength" : 19102}
{"year" : -369, "title" : "Larissa", "latitude": 39.624330836, "longitude": 22.416665, "month": 0, "day": 0, "articleLength" : 19102}
{"year" : -369, "title" : "Sparta", "latitude": 37.07583303, "longitude": 22.42083165, "month": 0, "day": 0, "articleLength" : 53175}
{"year" : -368, "title" : "China", "latitude": 35.0, "longitude": 105.0, "month": 0, "day": 0, "articleLength" : 67490}
{"year" : -367, "title" : "Sicyon", "latitude": 37.984104, "longitude": 22.711145, "month": 0, "day": 0, "articleLength" : 6505}
{"year" : -367, "title" : "Sparta", "latitude": 37.07583303, "longitude": 22.42083165, "month": 0, "day": 0, "articleLength" : 53175}
{"year" : -367, "title" : "Arcadia", "latitude": 37.583331, "longitude": 22.249999, "month": 0, "day": 0, "articleLength" : 22314}
{"year" : -367, "title" : "Carthage", "latitude": 36.851829926, "longitude": 10.320498718, "month": 0, "day": 0, "articleLength" : 46803}
{"year" : -366, "title" : "Kos", "latitude": 36.8499966, "longitude": 27.2333324, "month": 0, "day": 0, "articleLength" : 14131}
{"year" : -366, "title" : "Aegean Sea", "latitude": 36.4666648, "longitude": 22.9499962, "month": 0, "day": 0, "articleLength" : 12784}
{"year" : -366, "title" : "Achaea", "latitude": 38.083333, "longitude": 21.8499966, "month": 0, "day": 0, "articleLength" : 21910}
{"year" : -366, "title" : "Sparta", "latitude": 37.07583303, "longitude": 22.42083165, "month": 0, "day": 0, "articleLength" : 53175}
{"year" : -366, "title" : "Vergina", "latitude": 40.475331432, "longitude": 22.308165434, "month": 0, "day": 0, "articleLength" : 11480}
{"year" : -364, "title" : "Boeotia", "latitude": 38.8999964, "longitude": 22.5333312, "month": 0, "day": 0, "articleLength" : 11704}
{"year" : -364, "title" : "Pherae", "latitude": 39.3836111111, "longitude": 22.7463888889, "month": 0, "day": 0, "articleLength" : 1576}
{"year" : -364, "title" : "Sparta", "latitude": 37.07583303, "longitude": 22.42083165, "month": 0, "day": 0, "articleLength" : 53175}
{"year" : -364, "title" : "Arcadia", "latitude": 37.583331, "longitude": 22.249999, "month": 0, "day": 0, "articleLength" : 22314}
{"year" : -363, "title" : "Sparta", "latitude": 37.07583303, "longitude": 22.42083165, "month": 0, "day": 0, "articleLength" : 53175}
{"year" : -363, "title" : "Boeotia", "latitude": 38.8999964, "longitude": 22.5333312, "month": 0, "day": 0, "articleLength" : 11704}
{"year" : -362, "title" : "Sparta", "latitude": 37.07583303, "longitude": 22.42083165, "month": 0, "day": 0, "articleLength" : 53175}
{"year" : -362, "title" : "Arcadia", "latitude": 37.583331, "longitude": 22.249999, "month": 0, "day": 0, "articleLength" : 22314}
{"year" : -362, "title" : "Sparta", "latitude": 37.07583303, "longitude": 22.42083165, "month": 0, "day": 0, "articleLength" : 53175}
{"year" : -361, "title" : "Sidon", "latitude": 33.556331108, "longitude": 35.392165098, "month": 0, "day": 0, "articleLength" : 37901}
{"year" : -361, "title" : "Sparta", "latitude": 37.07583303, "longitude": 22.42083165, "month": 0, "day": 0, "articleLength" : 53175}
{"year" : -360, "title" : "Sparta", "latitude": 37.07583303, "longitude": 22.42083165, "month": 0, "day": 0, "articleLength" : 53175}
{"year" : -360, "title" : "Susa", "latitude": 32.18922, "longitude": 48.257785, "month": 0, "day": 0, "articleLength" : 18513}
{"year" : -360, "title" : "Sparta", "latitude": 37.07583303, "longitude": 22.42083165, "month": 0, "day": 0, "articleLength" : 53175}
{"year" : -360, "title" : "Greece", "latitude": 39.0, "longitude": 22.0, "month": 0, "day": 0, "articleLength" : 112185}
{"year" : -360, "title" : "Sparta", "latitude": 37.07583303, "longitude": 22.42083165, "month": 0, "day": 0, "articleLength" : 53175}
{"year" : -358, "title" : "Pherae", "latitude": 39.3836111111, "longitude": 22.7463888889, "month": 0, "day": 0, "articleLength" : 1576}
{"year" : -358, "title" : "Euboea", "latitude": 38.499998, "longitude": 24.0, "month": 0, "day": 0, "articleLength" : 17321}
{"year" : -358, "title" : "Thracian Chersonese", "latitude": 40.3499986, "longitude": 26.4666648, "month": 0, "day": 0, "articleLength" : 6083}
{"year" : -358, "title" : "Lake Ohrid", "latitude": 41.083333, "longitude": 20.749997, "month": 0, "day": 0, "articleLength" : 18077}
{"year" : -357, "title" : "Rhodes", "latitude": 36.166666, "longitude": 28.0, "month": 0, "day": 0, "articleLength" : 31811}
{"year" : -357, "title" : "Euboea", "latitude": 38.499998, "longitude": 24.0, "month": 0, "day": 0, "articleLength" : 17321}
{"year" : -357, "title" : "Thracian Chersonese", "latitude": 40.3499986, "longitude": 26.4666648, "month": 0, "day": 0, "articleLength" : 6083}
{"year" : -356, "title" : "Chios", "latitude": 38.3999984, "longitude": 26.0166666, "month": 0, "day": 0, "articleLength" : 35772}
{"year" : -356, "title" : "Rhodes", "latitude": 36.166666, "longitude": 28.0, "month": 0, "day": 0, "articleLength" : 31811}
{"year" : -356, "title" : "Potidaea", "latitude": 40.1999992, "longitude": 23.333332, "month": 0, "day": 0, "articleLength" : 3049}
{"year" : -356, "title" : "Philippi", "latitude": 41.007833302, "longitude": 24.285165526, "month": 0, "day": 0, "articleLength" : 14380}
{"year" : -356, "title" : "Boeotia", "latitude": 38.8999964, "longitude": 22.5333312, "month": 0, "day": 0, "articleLength" : 11704}
{"year" : -356, "title" : "Chios", "latitude": 38.3999984, "longitude": 26.0166666, "month": 0, "day": 0, "articleLength" : 35772}
{"year" : -356, "title" : "Rhodes", "latitude": 36.166666, "longitude": 28.0, "month": 0, "day": 0, "articleLength" : 31811}
{"year" : -356, "title" : "Kos", "latitude": 36.8499966, "longitude": 27.2333324, "month": 0, "day": 0, "articleLength" : 14131}
{"year" : -356, "title" : "Lemnos", "latitude": 39.916663, "longitude": 25.249999, "month": 0, "day": 0, "articleLength" : 18568}
{"year" : -356, "title" : "Imbros", "latitude": 40.156499374, "longitude": 25.83999664, "month": 0, "day": 0, "articleLength" : 23967}
{"year" : -356, "title" : "Temple of Artemis", "latitude": 37.943162894, "longitude": 27.3583319, "month": 0, "day": 0, "articleLength" : 24494}
{"year" : -356, "title" : "Ephesus", "latitude": 37.937162918, "longitude": 27.337831982, "month": 0, "day": 0, "articleLength" : 33946}
{"year" : -355, "title" : "Sparta", "latitude": 37.07583303, "longitude": 22.42083165, "month": 0, "day": 0, "articleLength" : 53175}
{"year" : -354, "title" : "Italy", "latitude": 41.8999964, "longitude": 12.4833314, "month": 0, "day": 0, "articleLength" : 147681}
{"year" : -354, "title" : "Chios", "latitude": 38.3999984, "longitude": 26.0166666, "month": 0, "day": 0, "articleLength" : 35772}
{"year" : -354, "title" : "Kos", "latitude": 36.8499966, "longitude": 27.2333324, "month": 0, "day": 0, "articleLength" : 14131}
{"year" : -354, "title" : "Rhodes", "latitude": 36.166666, "longitude": 28.0, "month": 0, "day": 0, "articleLength" : 31811}
{"year" : -353, "title" : "Black Sea", "latitude": 44.0, "longitude": 35.0, "month": 0, "day": 0, "articleLength" : 47922}
{"year" : -352, "title" : "Sparta", "latitude": 37.07583303, "longitude": 22.42083165, "month": 0, "day": 0, "articleLength" : 53175}
{"year" : -352, "title" : "Thermopylae", "latitude": 38.803163454, "longitude": 22.557664436, "month": 0, "day": 0, "articleLength" : 7700}
{"year" : -350, "title" : "Sidon", "latitude": 33.556331108, "longitude": 35.392165098, "month": 0, "day": 0, "articleLength" : 37901}
{"year" : -350, "title" : "London", "latitude": 51.504331316, "longitude": -0.123166174, "month": 0, "day": 0, "articleLength" : 154718}
{"year" : -350, "title" : "Epidaurus", "latitude": 37.590997636, "longitude": 23.07416637, "month": 0, "day": 0, "articleLength" : 6900}
{"year" : -350, "title" : "Epidaurus", "latitude": 37.590997636, "longitude": 23.07416637, "month": 0, "day": 0, "articleLength" : 6900}
{"year" : -350, "title" : "Greece", "latitude": 39.0, "longitude": 22.0, "month": 0, "day": 0, "articleLength" : 112185}
{"year" : -349, "title" : "Sidon", "latitude": 33.556331108, "longitude": 35.392165098, "month": 0, "day": 0, "articleLength" : 37901}
{"year" : -349, "title" : "Olynthus", "latitude": 40.275665564, "longitude": 23.335665324, "month": 0, "day": 0, "articleLength" : 11073}
{"year" : -348, "title" : "Sidon", "latitude": 33.556331108, "longitude": 35.392165098, "month": 0, "day": 0, "articleLength" : 37901}
{"year" : -348, "title" : "Euboea", "latitude": 38.499998, "longitude": 24.0, "month": 0, "day": 0, "articleLength" : 17321}
{"year" : -348, "title" : "Olynthus", "latitude": 40.275665564, "longitude": 23.335665324, "month": 0, "day": 0, "articleLength" : 11073}
{"year" : -348, "title" : "Euboea", "latitude": 38.499998, "longitude": 24.0, "month": 0, "day": 0, "articleLength" : 17321}
{"year" : -348, "title" : "Carthage", "latitude": 36.851829926, "longitude": 10.320498718, "month": 0, "day": 0, "articleLength" : 46803}
{"year" : -347, "title" : "Olynthus", "latitude": 40.275665564, "longitude": 23.335665324, "month": 0, "day": 0, "articleLength" : 11073}
{"year" : -347, "title" : "Pella", "latitude": 40.755996976, "longitude": 22.518164594, "month": 0, "day": 0, "articleLength" : 15345}
{"year" : -347, "title" : "Olynthus", "latitude": 40.275665564, "longitude": 23.335665324, "month": 0, "day": 0, "articleLength" : 11073}
{"year" : -347, "title" : "Aegean Sea", "latitude": 36.4666648, "longitude": 22.9499962, "month": 0, "day": 0, "articleLength" : 12784}
{"year" : -346, "title" : "Thermopylae", "latitude": 38.803163454, "longitude": 22.557664436, "month": 0, "day": 0, "articleLength" : 7700}
{"year" : -346, "title" : "Phocis", "latitude": 38.499998, "longitude": 22.249999, "month": 0, "day": 0, "articleLength" : 7281}
{"year" : -345, "title" : "Phocis", "latitude": 38.499998, "longitude": 22.249999, "month": 0, "day": 0, "articleLength" : 7281}
{"year" : -343, "title" : "Pelusium", "latitude": 31.04159, "longitude": 32.545071, "month": 0, "day": 0, "articleLength" : 12387}
{"year" : -343, "title" : "Nile Delta", "latitude": 30.8999964, "longitude": 31.1166662, "month": 0, "day": 0, "articleLength" : 8087}
{"year" : -343, "title" : "Crete", "latitude": 35.0, "longitude": 25.0, "month": 0, "day": 0, "articleLength" : 31990}
{"year" : -343, "title" : "Sparta", "latitude": 37.07583303, "longitude": 22.42083165, "month": 0, "day": 0, "articleLength" : 53175}
{"year" : -343, "title" : "Italy", "latitude": 41.8999964, "longitude": 12.4833314, "month": 0, "day": 0, "articleLength" : 147681}
{"year" : -343, "title" : "Greece", "latitude": 39.0, "longitude": 22.0, "month": 0, "day": 0, "articleLength" : 112185}
{"year" : -343, "title" : "Italy", "latitude": 41.8999964, "longitude": 12.4833314, "month": 0, "day": 0, "articleLength" : 147681}
{"year" : -342, "title" : "Pella", "latitude": 40.755996976, "longitude": 22.518164594, "month": 0, "day": 0, "articleLength" : 15345}
{"year" : -342, "title" : "Greece", "latitude": 39.0, "longitude": 22.0, "month": 0, "day": 0, "articleLength" : 112185}
{"year" : -342, "title" : "Thracian Chersonese", "latitude": 40.3499986, "longitude": 26.4666648, "month": 0, "day": 0, "articleLength" : 6083}
{"year" : -342, "title" : "Cumae", "latitude": 40.838496646, "longitude": 14.053499786, "month": 0, "day": 0, "articleLength" : 7564}
{"year" : -340, "title" : "Rhodes", "latitude": 36.166666, "longitude": 28.0, "month": 0, "day": 0, "articleLength" : 31811}
{"year" : -340, "title" : "Carthage", "latitude": 36.851829926, "longitude": 10.320498718, "month": 0, "day": 0, "articleLength" : 46803}
{"year" : -340, "title" : "Cumae", "latitude": 40.838496646, "longitude": 14.053499786, "month": 0, "day": 0, "articleLength" : 7564}
{"year" : -339, "title" : "Thermopylae", "latitude": 38.803163454, "longitude": 22.557664436, "month": 0, "day": 0, "articleLength" : 7700}
{"year" : -338, "title" : "Phocis", "latitude": 38.499998, "longitude": 22.249999, "month": 0, "day": 0, "articleLength" : 7281}
{"year" : -338, "title" : "Euboea", "latitude": 38.499998, "longitude": 24.0, "month": 0, "day": 0, "articleLength" : 17321}
{"year" : -338, "title" : "Achaea", "latitude": 38.083333, "longitude": 21.8499966, "month": 0, "day": 0, "articleLength" : 21910}
{"year" : -338, "title" : "Boeotia", "latitude": 38.8999964, "longitude": 22.5333312, "month": 0, "day": 0, "articleLength" : 11704}
{"year" : -338, "title" : "Sparta", "latitude": 37.07583303, "longitude": 22.42083165, "month": 0, "day": 0, "articleLength" : 53175}
{"year" : -338, "title" : "Sparta", "latitude": 37.07583303, "longitude": 22.42083165, "month": 0, "day": 0, "articleLength" : 53175}
{"year" : -338, "title" : "Italy", "latitude": 41.8999964, "longitude": 12.4833314, "month": 0, "day": 0, "articleLength" : 147681}
{"year" : -338, "title" : "Sparta", "latitude": 37.07583303, "longitude": 22.42083165, "month": 0, "day": 0, "articleLength" : 53175}
{"year" : -338, "title" : "Carthage", "latitude": 36.851829926, "longitude": 10.320498718, "month": 0, "day": 0, "articleLength" : 46803}
{"year" : -337, "title" : "Sparta", "latitude": 37.07583303, "longitude": 22.42083165, "month": 0, "day": 0, "articleLength" : 53175}
{"year" : -335, "title" : "Shipka Pass", "latitude": 42.752996988, "longitude": 25.317998728, "month": 0, "day": 0, "articleLength" : 3901}
{"year" : -335, "title" : "Cales", "latitude": 41.2, "longitude": 14.132, "month": 0, "day": 0, "articleLength" : 2042}
{"year" : -334, "title" : "Dardanelles", "latitude": 40.2, "longitude": 26.4, "month": 0, "day": 0, "articleLength" : 15061}
{"year" : -334, "title" : "Battle of the Granicus", "latitude": 40.223499106, "longitude": 27.238665712, "month": 0, "day": 0, "articleLength" : 13998}
{"year" : -334, "title" : "Sea of Marmara", "latitude": 40.720163786, "longitude": 28.221499114, "month": 0, "day": 0, "articleLength" : 7636}
{"year" : -334, "title" : "Sardis", "latitude": 38.486331388, "longitude": 28.03749985, "month": 0, "day": 0, "articleLength" : 10436}
{"year" : -334, "title" : "Miletus", "latitude": 37.530233, "longitude": 27.278369, "month": 0, "day": 0, "articleLength" : 20830}
{"year" : -334, "title" : "Italy", "latitude": 41.8999964, "longitude": 12.4833314, "month": 0, "day": 0, "articleLength" : 147681}
{"year" : -333, "title" : "Battle of Issus", "latitude": 36.837894, "longitude": 36.211109, "month": 0, "day": 0, "articleLength" : 16459}
{"year" : -333, "title" : "Anatolia", "latitude": 39.0, "longitude": 32.0, "month": 0, "day": 0, "articleLength" : 31352}
{"year" : -333, "title" : "Damascus", "latitude": 33.513, "longitude": 36.292, "month": 0, "day": 0, "articleLength" : 79451}
{"year" : -333, "title" : "Sidon", "latitude": 33.556331108, "longitude": 35.392165098, "month": 0, "day": 0, "articleLength" : 37901}
{"year" : -332, "title" : "Damascus", "latitude": 33.513, "longitude": 36.292, "month": 0, "day": 0, "articleLength" : 79451}
{"year" : -332, "title" : "Alexandria", "latitude": 31.198, "longitude": 29.9192, "month": 0, "day": 0, "articleLength" : 63479}
{"year" : -332, "title" : "Nile", "latitude": 12.0333332, "longitude": 37.249999, "month": 0, "day": 0, "articleLength" : 49047}
{"year" : -331, "title" : "Battle of Gaugamela", "latitude": 36.36, "longitude": 43.25, "month": 0, "day": 0, "articleLength" : 25538}
{"year" : -331, "title" : "Babylon", "latitude": 32.535164526, "longitude": 44.41916499, "month": 0, "day": 0, "articleLength" : 33695}
{"year" : -331, "title" : "Susa", "latitude": 32.18922, "longitude": 48.257785, "month": 0, "day": 0, "articleLength" : 18513}
{"year" : -331, "title" : "Sparta", "latitude": 37.07583303, "longitude": 22.42083165, "month": 0, "day": 0, "articleLength" : 53175}
{"year" : -331, "title" : "Greece", "latitude": 39.0, "longitude": 22.0, "month": 0, "day": 0, "articleLength" : 112185}
{"year" : -331, "title" : "Crete", "latitude": 35.0, "longitude": 25.0, "month": 0, "day": 0, "articleLength" : 31990}
{"year" : -331, "title" : "Achaea", "latitude": 38.083333, "longitude": 21.8499966, "month": 0, "day": 0, "articleLength" : 21910}
{"year" : -331, "title" : "Arcadia", "latitude": 37.583331, "longitude": 22.249999, "month": 0, "day": 0, "articleLength" : 22314}
{"year" : -331, "title" : "Italy", "latitude": 41.8999964, "longitude": 12.4833314, "month": 0, "day": 0, "articleLength" : 147681}
{"year" : -331, "title" : "Acheron", "latitude": 39.23499906, "longitude": 20.472331444, "month": 0, "day": 0, "articleLength" : 4436}
{"year" : -330, "title" : "Persian Gates", "latitude": 30.70499718, "longitude": 51.59249763, "month": 0, "day": 0, "articleLength" : 1282}
{"year" : -330, "title" : "Persepolis", "latitude": 29.933996264, "longitude": 52.888163114, "month": 0, "day": 0, "articleLength" : 37065}
{"year" : -330, "title" : "Ecbatana", "latitude": 34.7999968, "longitude": 48.499998, "month": 0, "day": 0, "articleLength" : 5900}
{"year" : -330, "title" : "Caspian Sea", "latitude": 40.0, "longitude": 51.0, "month": 0, "day": 0, "articleLength" : 41591}
{"year" : -330, "title" : "Ecbatana", "latitude": 34.7999968, "longitude": 48.499998, "month": 0, "day": 0, "articleLength" : 5900}
{"year" : -330, "title" : "Sparta", "latitude": 37.07583303, "longitude": 22.42083165, "month": 0, "day": 0, "articleLength" : 53175}
{"year" : -330, "title" : "Rhodes", "latitude": 36.166666, "longitude": 28.0, "month": 0, "day": 0, "articleLength" : 31811}
{"year" : -329, "title" : "Helmand River", "latitude": 34.5666644, "longitude": 68.5499978, "month": 0, "day": 0, "articleLength" : 4792}
{"year" : -329, "title" : "Hindu Kush", "latitude": 35.0, "longitude": 71.0, "month": 0, "day": 0, "articleLength" : 18808}
{"year" : -329, "title" : "Khawak Pass", "latitude": 35.666664, "longitude": 69.7999968, "month": 0, "day": 0, "articleLength" : 2926}
{"year" : -329, "title" : "Ecbatana", "latitude": 34.7999968, "longitude": 48.499998, "month": 0, "day": 0, "articleLength" : 5900}
{"year" : -329, "title" : "Alexandria Eschate", "latitude": 40.249999, "longitude": 69.6333308, "month": 0, "day": 0, "articleLength" : 4621}
{"year" : -327, "title" : "India", "latitude": 21.0, "longitude": 78.0, "month": 0, "day": 0, "articleLength" : 132382}
{"year" : -327, "title" : "Hindu Kush", "latitude": 35.0, "longitude": 71.0, "month": 0, "day": 0, "articleLength" : 18808}
{"year" : -327, "title" : "Khyber Pass", "latitude": 34.1333328, "longitude": 71.083333, "month": 0, "day": 0, "articleLength" : 9629}
{"year" : -327, "title" : "Olynthus", "latitude": 40.275665564, "longitude": 23.335665324, "month": 0, "day": 0, "articleLength" : 11073}
{"year" : -326, "title" : "Attock", "latitude": 33.904329716, "longitude": 72.30666544, "month": 0, "day": 0, "articleLength" : 7689}
{"year" : -326, "title" : "Taxila", "latitude": 33.74083037, "longitude": 72.78583019, "month": 0, "day": 0, "articleLength" : 24928}
{"year" : -326, "title" : "Jhelum River", "latitude": 31.1999992, "longitude": 72.1333328, "month": 0, "day": 0, "articleLength" : 9552}
{"year" : -326, "title" : "Chenab River", "latitude": 31.18666592, "longitude": 11.9499962, "month": 0, "day": 0, "articleLength" : 5384}
{"year" : -326, "title" : "India", "latitude": 21.0, "longitude": 78.0, "month": 0, "day": 0, "articleLength" : 132382}
{"year" : -326, "title" : "Alexandria Bucephalous", "latitude": 32.925329632, "longitude": 73.725163766, "month": 0, "day": 0, "articleLength" : 7045}
{"year" : -326, "title" : "Persian Gulf", "latitude": 26.902829722, "longitude": 51.541831166, "month": 0, "day": 0, "articleLength" : 46515}
{"year" : -326, "title" : "Italy", "latitude": 41.8999964, "longitude": 12.4833314, "month": 0, "day": 0, "articleLength" : 147681}
{"year" : -326, "title" : "Apulia", "latitude": 41.005166646, "longitude": 16.507664636, "month": 0, "day": 0, "articleLength" : 17450}
{"year" : -325, "title" : "India", "latitude": 21.0, "longitude": 78.0, "month": 0, "day": 0, "articleLength" : 132382}
{"year" : -325, "title" : "Persian Gulf", "latitude": 26.902829722, "longitude": 51.541831166, "month": 0, "day": 0, "articleLength" : 46515}
{"year" : -325, "title" : "Babylon", "latitude": 32.535164526, "longitude": 44.41916499, "month": 0, "day": 0, "articleLength" : 33695}
{"year" : -325, "title" : "Iran", "latitude": 32.0, "longitude": 53.0, "month": 0, "day": 0, "articleLength" : 151456}
{"year" : -325, "title" : "Iran", "latitude": 32.0, "longitude": 53.0, "month": 0, "day": 0, "articleLength" : 151456}
{"year" : -325, "title" : "Makran", "latitude": 25.30541, "longitude": 60.64108, "month": 0, "day": 0, "articleLength" : 9743}
{"year" : -325, "title" : "Persepolis", "latitude": 29.933996264, "longitude": 52.888163114, "month": 0, "day": 0, "articleLength" : 37065}
{"year" : -325, "title" : "Susa", "latitude": 32.18922, "longitude": 48.257785, "month": 0, "day": 0, "articleLength" : 18513}
{"year" : -324, "title" : "Susa", "latitude": 32.18922, "longitude": 48.257785, "month": 0, "day": 0, "articleLength" : 18513}
{"year" : -324, "title" : "India", "latitude": 21.0, "longitude": 78.0, "month": 0, "day": 0, "articleLength" : 132382}
{"year" : -324, "title" : "Ecbatana", "latitude": 34.7999968, "longitude": 48.499998, "month": 0, "day": 0, "articleLength" : 5900}
{"year" : -324, "title" : "Susa", "latitude": 32.18922, "longitude": 48.257785, "month": 0, "day": 0, "articleLength" : 18513}
{"year" : -324, "title" : "Crete", "latitude": 35.0, "longitude": 25.0, "month": 0, "day": 0, "articleLength" : 31990}
{"year" : -323, "title" : "Babylon", "latitude": 32.535164526, "longitude": 44.41916499, "month": 0, "day": 0, "articleLength" : 33695}
{"year" : -323, "title" : "Larissa", "latitude": 39.624330836, "longitude": 22.416665, "month": 0, "day": 0, "articleLength" : 19102}
{"year" : -323, "title" : "Greece", "latitude": 39.0, "longitude": 22.0, "month": 0, "day": 0, "articleLength" : 112185}
{"year" : -323, "title" : "Cappadocia", "latitude": 38.668997324, "longitude": 34.836829986, "month": 0, "day": 0, "articleLength" : 23148}
{"year" : -323, "title" : "India", "latitude": 21.0, "longitude": 78.0, "month": 0, "day": 0, "articleLength" : 132382}
{"year" : -323, "title" : "Greece", "latitude": 39.0, "longitude": 22.0, "month": 0, "day": 0, "articleLength" : 112185}
{"year" : -323, "title" : "Euboea", "latitude": 38.499998, "longitude": 24.0, "month": 0, "day": 0, "articleLength" : 17321}
{"year" : -322, "title" : "Babylon", "latitude": 32.535164526, "longitude": 44.41916499, "month": 0, "day": 0, "articleLength" : 33695}
{"year" : -322, "title" : "Cappadocia", "latitude": 38.668997324, "longitude": 34.836829986, "month": 0, "day": 0, "articleLength" : 23148}
{"year" : -322, "title" : "Greece", "latitude": 39.0, "longitude": 22.0, "month": 0, "day": 0, "articleLength" : 112185}
{"year" : -322, "title" : "Cappadocia", "latitude": 38.668997324, "longitude": 34.836829986, "month": 0, "day": 0, "articleLength" : 23148}
{"year" : -322, "title" : "Aegina", "latitude": 37.749997, "longitude": 23.4333316, "month": 0, "day": 0, "articleLength" : 34470}
{"year" : -322, "title" : "Memphis, Egypt", "latitude": 29.83333, "longitude": 31.249999, "month": 0, "day": 0, "articleLength" : 78136}
{"year" : -322, "title" : "Libya", "latitude": 27.4, "longitude": 17.6, "month": 0, "day": 0, "articleLength" : 101182}
{"year" : -321, "title" : "Cappadocia", "latitude": 38.668997324, "longitude": 34.836829986, "month": 0, "day": 0, "articleLength" : 23148}
{"year" : -321, "title" : "Nile", "latitude": 12.0333332, "longitude": 37.249999, "month": 0, "day": 0, "articleLength" : 49047}
{"year" : -321, "title" : "Babylon", "latitude": 32.535164526, "longitude": 44.41916499, "month": 0, "day": 0, "articleLength" : 33695}
{"year" : -321, "title" : "Cappadocia", "latitude": 38.668997324, "longitude": 34.836829986, "month": 0, "day": 0, "articleLength" : 23148}
{"year" : -320, "title" : "Babylon", "latitude": 32.535164526, "longitude": 44.41916499, "month": 0, "day": 0, "articleLength" : 33695}
{"year" : -320, "title" : "Greece", "latitude": 39.0, "longitude": 22.0, "month": 0, "day": 0, "articleLength" : 112185}
{"year" : -320, "title" : "Cappadocia", "latitude": 38.668997324, "longitude": 34.836829986, "month": 0, "day": 0, "articleLength" : 23148}
{"year" : -320, "title" : "Judea", "latitude": 31.692663896, "longitude": 35.303832118, "month": 0, "day": 0, "articleLength" : 15068}
{"year" : -320, "title" : "China", "latitude": 35.0, "longitude": 105.0, "month": 0, "day": 0, "articleLength" : 67490}
{"year" : -320, "title" : "Alexandria", "latitude": 31.198, "longitude": 29.9192, "month": 0, "day": 0, "articleLength" : 63479}
{"year" : -320, "title" : "Babylon", "latitude": 32.535164526, "longitude": 44.41916499, "month": 0, "day": 0, "articleLength" : 33695}
{"year" : -319, "title" : "Greece", "latitude": 39.0, "longitude": 22.0, "month": 0, "day": 0, "articleLength" : 112185}
{"year" : -318, "title" : "Babylon", "latitude": 32.535164526, "longitude": 44.41916499, "month": 0, "day": 0, "articleLength" : 33695}
{"year" : -318, "title" : "Sichuan", "latitude": 30.0, "longitude": 103.0, "month": 0, "day": 0, "articleLength" : 36807}
{"year" : -317, "title" : "Babylon", "latitude": 32.535164526, "longitude": 44.41916499, "month": 0, "day": 0, "articleLength" : 33695}
{"year" : -316, "title" : "Susa", "latitude": 32.18922, "longitude": 48.257785, "month": 0, "day": 0, "articleLength" : 18513}
{"year" : -316, "title" : "Apulia", "latitude": 41.005166646, "longitude": 16.507664636, "month": 0, "day": 0, "articleLength" : 17450}
{"year" : -315, "title" : "Susa", "latitude": 32.18922, "longitude": 48.257785, "month": 0, "day": 0, "articleLength" : 18513}
{"year" : -315, "title" : "Babylon", "latitude": 32.535164526, "longitude": 44.41916499, "month": 0, "day": 0, "articleLength" : 33695}
{"year" : -314, "title" : "Babylon", "latitude": 32.535164526, "longitude": 44.41916499, "month": 0, "day": 0, "articleLength" : 33695}
{"year" : -314, "title" : "China", "latitude": 35.0, "longitude": 105.0, "month": 0, "day": 0, "articleLength" : 67490}
{"year" : -311, "title" : "Elam", "latitude": 29.8999964, "longitude": 52.3999984, "month": 0, "day": 0, "articleLength" : 31323}
{"year" : -310, "title" : "Tigris", "latitude": 38.4333316, "longitude": 39.770330252, "month": 0, "day": 0, "articleLength" : 12691}
{"year" : -309, "title" : "Sparta", "latitude": 37.07583303, "longitude": 22.42083165, "month": 0, "day": 0, "articleLength" : 53175}
{"year" : -309, "title" : "Carthage", "latitude": 36.851829926, "longitude": 10.320498718, "month": 0, "day": 0, "articleLength" : 46803}
{"year" : -309, "title" : "Sichuan", "latitude": 30.0, "longitude": 103.0, "month": 0, "day": 0, "articleLength" : 36807}
{"year" : -308, "title" : "Sicyon", "latitude": 37.984104, "longitude": 22.711145, "month": 0, "day": 0, "articleLength" : 6505}
{"year" : -307, "title" : "Library of Alexandria", "latitude": 31.205332512, "longitude": 29.905496378, "month": 0, "day": 0, "articleLength" : 39606}
{"year" : -307, "title" : "Alexandria", "latitude": 31.198, "longitude": 29.9192, "month": 0, "day": 0, "articleLength" : 63479}
{"year" : -307, "title" : "Carthage", "latitude": 36.851829926, "longitude": 10.320498718, "month": 0, "day": 0, "articleLength" : 46803}
{"year" : -307, "title" : "Segesta", "latitude": 37.9333296, "longitude": 12.83333, "month": 0, "day": 0, "articleLength" : 5504}
{"year" : -306, "title" : "Carthage", "latitude": 36.851829926, "longitude": 10.320498718, "month": 0, "day": 0, "articleLength" : 46803}
{"year" : -306, "title" : "London", "latitude": 51.504331316, "longitude": -0.123166174, "month": 0, "day": 0, "articleLength" : 154718}
{"year" : -305, "title" : "Seleucia", "latitude": 33.08999964, "longitude": 44.51999792, "month": 0, "day": 0, "articleLength" : 11576}
{"year" : -305, "title" : "Rhodes", "latitude": 36.166666, "longitude": 28.0, "month": 0, "day": 0, "articleLength" : 31811}
{"year" : -304, "title" : "Rhodes", "latitude": 36.166666, "longitude": 28.0, "month": 0, "day": 0, "articleLength" : 31811}
{"year" : -304, "title" : "Italy", "latitude": 41.8999964, "longitude": 12.4833314, "month": 0, "day": 0, "articleLength" : 147681}
{"year" : -304, "title" : "India", "latitude": 21.0, "longitude": 78.0, "month": 0, "day": 0, "articleLength" : 132382}
{"year" : -303, "title" : "India", "latitude": 21.0, "longitude": 78.0, "month": 0, "day": 0, "articleLength" : 132382}
{"year" : -303, "title" : "Sicyon", "latitude": 37.984104, "longitude": 22.711145, "month": 0, "day": 0, "articleLength" : 6505}
{"year" : -303, "title" : "Peloponnese", "latitude": 37.343165294, "longitude": 22.351331928, "month": 0, "day": 0, "articleLength" : 15604}
{"year" : -303, "title" : "Achaea", "latitude": 38.083333, "longitude": 21.8499966, "month": 0, "day": 0, "articleLength" : 21910}
{"year" : -303, "title" : "Arcadia", "latitude": 37.583331, "longitude": 22.249999, "month": 0, "day": 0, "articleLength" : 22314}
{"year" : -303, "title" : "Sparta", "latitude": 37.07583303, "longitude": 22.42083165, "month": 0, "day": 0, "articleLength" : 53175}
{"year" : -302, "title" : "Sparta", "latitude": 37.07583303, "longitude": 22.42083165, "month": 0, "day": 0, "articleLength" : 53175}
{"year" : -302, "title" : "Messenia", "latitude": 37.249999, "longitude": 21.83333, "month": 0, "day": 0, "articleLength" : 9970}
{"year" : -302, "title" : "Ephesus", "latitude": 37.937162918, "longitude": 27.337831982, "month": 0, "day": 0, "articleLength" : 33946}
{"year" : -301, "title" : "Judea", "latitude": 31.692663896, "longitude": 35.303832118, "month": 0, "day": 0, "articleLength" : 15068}
{"year" : -300, "title" : "Antioch", "latitude": 36.1999992, "longitude": 36.1499994, "month": 0, "day": 0, "articleLength" : 28693}
{"year" : -300, "title" : "Orontes River", "latitude": 35.249999, "longitude": 36.583331, "month": 0, "day": 0, "articleLength" : 4410}
{"year" : -300, "title" : "Pella", "latitude": 40.755996976, "longitude": 22.518164594, "month": 0, "day": 0, "articleLength" : 15345}
{"year" : -300, "title" : "Pella", "latitude": 40.755996976, "longitude": 22.518164594, "month": 0, "day": 0, "articleLength" : 15345}
{"year" : -297, "title" : "Mysore", "latitude": 12.3, "longitude": 76.65, "month": 0, "day": 0, "articleLength" : 60819}
{"year" : -297, "title" : "Pataliputra", "latitude": 25.6125, "longitude": 85.1283333333, "month": 0, "day": 0, "articleLength" : 6797}
{"year" : -294, "title" : "Sparta", "latitude": 37.07583303, "longitude": 22.42083165, "month": 0, "day": 0, "articleLength" : 53175}
{"year" : -294, "title" : "Ambracia", "latitude": 39.158, "longitude": 20.987, "month": 0, "day": 0, "articleLength" : 4844}
{"year" : -294, "title" : "Sidon", "latitude": 33.556331108, "longitude": 35.392165098, "month": 0, "day": 0, "articleLength" : 37901}
{"year" : -293, "title" : "Epidaurus", "latitude": 37.590997636, "longitude": 23.07416637, "month": 0, "day": 0, "articleLength" : 6900}
{"year" : -293, "title" : "Caspian Sea", "latitude": 40.0, "longitude": 51.0, "month": 0, "day": 0, "articleLength" : 41591}
{"year" : -293, "title" : "Aral Sea", "latitude": 45.0, "longitude": 60.0, "month": 0, "day": 0, "articleLength" : 39237}
{"year" : -293, "title" : "Indian Ocean", "latitude": -20.0, "longitude": 80.0, "month": 0, "day": 0, "articleLength" : 19117}
{"year" : -292, "title" : "Boeotia", "latitude": 38.8999964, "longitude": 22.5333312, "month": 0, "day": 0, "articleLength" : 11704}
{"year" : -290, "title" : "Red Sea", "latitude": 22.0, "longitude": 38.0, "month": 0, "day": 0, "articleLength" : 31206}
{"year" : -288, "title" : "Aegean Sea", "latitude": 36.4666648, "longitude": 22.9499962, "month": 0, "day": 0, "articleLength" : 12784}
{"year" : -286, "title" : "Taurus Mountains", "latitude": 37.0, "longitude": 33.0, "month": 0, "day": 0, "articleLength" : 4798}
{"year" : -285, "title" : "Alexandria", "latitude": 31.198, "longitude": 29.9192, "month": 0, "day": 0, "articleLength" : 63479}
{"year" : -283, "title" : "Italy", "latitude": 41.8999964, "longitude": 12.4833314, "month": 0, "day": 0, "articleLength" : 147681}
{"year" : -283, "title" : "Red Sea", "latitude": 22.0, "longitude": 38.0, "month": 0, "day": 0, "articleLength" : 31206}
{"year" : -283, "title" : "Alexandria", "latitude": 31.198, "longitude": 29.9192, "month": 0, "day": 0, "articleLength" : 63479}
{"year" : -282, "title" : "Italy", "latitude": 41.8999964, "longitude": 12.4833314, "month": 0, "day": 0, "articleLength" : 147681}
{"year" : -281, "title" : "Anatolia", "latitude": 39.0, "longitude": 32.0, "month": 0, "day": 0, "articleLength" : 31352}
{"year" : -281, "title" : "Judea", "latitude": 31.692663896, "longitude": 35.303832118, "month": 0, "day": 0, "articleLength" : 15068}
{"year" : -281, "title" : "Iran", "latitude": 32.0, "longitude": 53.0, "month": 0, "day": 0, "articleLength" : 151456}
{"year" : -281, "title" : "Alexandria", "latitude": 31.198, "longitude": 29.9192, "month": 0, "day": 0, "articleLength" : 63479}
{"year" : -281, "title" : "Italy", "latitude": 41.8999964, "longitude": 12.4833314, "month": 0, "day": 0, "articleLength" : 147681}
{"year" : -281, "title" : "Anatolia", "latitude": 39.0, "longitude": 32.0, "month": 0, "day": 0, "articleLength" : 31352}
{"year" : -280, "title" : "Cappadocia", "latitude": 38.668997324, "longitude": 34.836829986, "month": 0, "day": 0, "articleLength" : 23148}
{"year" : -280, "title" : "Italy", "latitude": 41.8999964, "longitude": 12.4833314, "month": 0, "day": 0, "articleLength" : 147681}
{"year" : -280, "title" : "Rhodes", "latitude": 36.166666, "longitude": 28.0, "month": 0, "day": 0, "articleLength" : 31811}
{"year" : -280, "title" : "Aegean Sea", "latitude": 36.4666648, "longitude": 22.9499962, "month": 0, "day": 0, "articleLength" : 12784}
{"year" : -280, "title" : "Colossus of Rhodes", "latitude": 36.450664864, "longitude": 28.22333244, "month": 0, "day": 0, "articleLength" : 21911}
{"year" : -279, "title" : "Thermopylae", "latitude": 38.803163454, "longitude": 22.557664436, "month": 0, "day": 0, "articleLength" : 7700}
{"year" : -279, "title" : "Tylis", "latitude": 42.583331, "longitude": 25.5499978, "month": 0, "day": 0, "articleLength" : 1737}
{"year" : -279, "title" : "Italy", "latitude": 41.8999964, "longitude": 12.4833314, "month": 0, "day": 0, "articleLength" : 147681}
{"year" : -279, "title" : "Apulia", "latitude": 41.005166646, "longitude": 16.507664636, "month": 0, "day": 0, "articleLength" : 17450}
{"year" : -279, "title" : "Miletus", "latitude": 37.530233, "longitude": 27.278369, "month": 0, "day": 0, "articleLength" : 20830}
{"year" : -279, "title" : "Singidunum", "latitude": 44.8166634, "longitude": 20.4666648, "month": 0, "day": 0, "articleLength" : 10622}
{"year" : -278, "title" : "Greece", "latitude": 39.0, "longitude": 22.0, "month": 0, "day": 0, "articleLength" : 112185}
{"year" : -278, "title" : "Nicomedia", "latitude": 40.7666636, "longitude": 29.916663, "month": 0, "day": 0, "articleLength" : 5301}
{"year" : -278, "title" : "Italy", "latitude": 41.8999964, "longitude": 12.4833314, "month": 0, "day": 0, "articleLength" : 147681}
{"year" : -278, "title" : "Hubei", "latitude": 30.9666628, "longitude": 112.2333324, "month": 0, "day": 0, "articleLength" : 30250}
{"year" : -277, "title" : "Thracian Chersonese", "latitude": 40.3499986, "longitude": 26.4666648, "month": 0, "day": 0, "articleLength" : 6083}
{"year" : -274, "title" : "Italy", "latitude": 41.8999964, "longitude": 12.4833314, "month": 0, "day": 0, "articleLength" : 147681}
{"year" : -274, "title" : "Anatolia", "latitude": 39.0, "longitude": 32.0, "month": 0, "day": 0, "articleLength" : 31352}
{"year" : -274, "title" : "Libya", "latitude": 27.4, "longitude": 17.6, "month": 0, "day": 0, "articleLength" : 101182}
{"year" : -272, "title" : "Miletus", "latitude": 37.530233, "longitude": 27.278369, "month": 0, "day": 0, "articleLength" : 20830}
{"year" : -272, "title" : "Cyclades", "latitude": 37.0, "longitude": 25.166666, "month": 0, "day": 0, "articleLength" : 11772}
{"year" : -272, "title" : "Samothrace", "latitude": 40.4833314, "longitude": 25.5166646, "month": 0, "day": 0, "articleLength" : 7401}
{"year" : -272, "title" : "Italy", "latitude": 41.8999964, "longitude": 12.4833314, "month": 0, "day": 0, "articleLength" : 147681}
{"year" : -272, "title" : "Sparta", "latitude": 37.07583303, "longitude": 22.42083165, "month": 0, "day": 0, "articleLength" : 53175}
{"year" : -272, "title" : "Peloponnese", "latitude": 37.343165294, "longitude": 22.351331928, "month": 0, "day": 0, "articleLength" : 15604}
{"year" : -272, "title" : "Crete", "latitude": 35.0, "longitude": 25.0, "month": 0, "day": 0, "articleLength" : 31990}
{"year" : -271, "title" : "Sparta", "latitude": 37.07583303, "longitude": 22.42083165, "month": 0, "day": 0, "articleLength" : 53175}
{"year" : -271, "title" : "Euboea", "latitude": 38.499998, "longitude": 24.0, "month": 0, "day": 0, "articleLength" : 17321}
{"year" : -270, "title" : "Italy", "latitude": 41.8999964, "longitude": 12.4833314, "month": 0, "day": 0, "articleLength" : 147681}
{"year" : -270, "title" : "Carthage", "latitude": 36.851829926, "longitude": 10.320498718, "month": 0, "day": 0, "articleLength" : 46803}
{"year" : -268, "title" : "Sparta", "latitude": 37.07583303, "longitude": 22.42083165, "month": 0, "day": 0, "articleLength" : 53175}
{"year" : -268, "title" : "Aegean Sea", "latitude": 36.4666648, "longitude": 22.9499962, "month": 0, "day": 0, "articleLength" : 12784}
{"year" : -267, "title" : "Sparta", "latitude": 37.07583303, "longitude": 22.42083165, "month": 0, "day": 0, "articleLength" : 53175}
{"year" : -267, "title" : "Arcadia", "latitude": 37.583331, "longitude": 22.249999, "month": 0, "day": 0, "articleLength" : 22314}
{"year" : -267, "title" : "Achaea", "latitude": 38.083333, "longitude": 21.8499966, "month": 0, "day": 0, "articleLength" : 21910}
{"year" : -265, "title" : "Saronic Gulf", "latitude": 37.676163962, "longitude": 23.5999976, "month": 0, "day": 0, "articleLength" : 5148}
{"year" : -265, "title" : "Sparta", "latitude": 37.07583303, "longitude": 22.42083165, "month": 0, "day": 0, "articleLength" : 53175}
{"year" : -265, "title" : "Sparta", "latitude": 37.07583303, "longitude": 22.42083165, "month": 0, "day": 0, "articleLength" : 53175}
{"year" : -265, "title" : "Carthage", "latitude": 36.851829926, "longitude": 10.320498718, "month": 0, "day": 0, "articleLength" : 46803}
{"year" : -265, "title" : "Alexandria", "latitude": 31.198, "longitude": 29.9192, "month": 0, "day": 0, "articleLength" : 63479}
{"year" : -264, "title" : "Sicyon", "latitude": 37.984104, "longitude": 22.711145, "month": 0, "day": 0, "articleLength" : 6505}
{"year" : -264, "title" : "Italy", "latitude": 41.8999964, "longitude": 12.4833314, "month": 0, "day": 0, "articleLength" : 147681}
{"year" : -264, "title" : "Carthage", "latitude": 36.851829926, "longitude": 10.320498718, "month": 0, "day": 0, "articleLength" : 46803}
{"year" : -264, "title" : "Aventine Hill", "latitude": 41.8833298, "longitude": 12.4833314, "month": 0, "day": 0, "articleLength" : 12075}
{"year" : -263, "title" : "Sparta", "latitude": 37.07583303, "longitude": 22.42083165, "month": 0, "day": 0, "articleLength" : 53175}
{"year" : -262, "title" : "Carthage", "latitude": 36.851829926, "longitude": 10.320498718, "month": 0, "day": 0, "articleLength" : 46803}
{"year" : -262, "title" : "Sardis", "latitude": 38.486331388, "longitude": 28.03749985, "month": 0, "day": 0, "articleLength" : 10436}
{"year" : -261, "title" : "Carthage", "latitude": 36.851829926, "longitude": 10.320498718, "month": 0, "day": 0, "articleLength" : 46803}
{"year" : -261, "title" : "Aegean Sea", "latitude": 36.4666648, "longitude": 22.9499962, "month": 0, "day": 0, "articleLength" : 12784}
{"year" : -260, "title" : "Segesta", "latitude": 37.9333296, "longitude": 12.83333, "month": 0, "day": 0, "articleLength" : 5504}
{"year" : -260, "title" : "Strait of Messina", "latitude": 38.24083237, "longitude": 15.626164162, "month": 0, "day": 0, "articleLength" : 5151}
{"year" : -260, "title" : "Library of Alexandria", "latitude": 31.205332512, "longitude": 29.905496378, "month": 0, "day": 0, "articleLength" : 39606}
{"year" : -260, "title" : "Gaoping", "latitude": 35.7999968, "longitude": 112.9333296, "month": 0, "day": 0, "articleLength" : 2319}
{"year" : -260, "title" : "Shanxi", "latitude": 38.0, "longitude": 112.0, "month": 0, "day": 0, "articleLength" : 28700}
{"year" : -258, "title" : "Carthage", "latitude": 36.851829926, "longitude": 10.320498718, "month": 0, "day": 0, "articleLength" : 46803}
{"year" : -258, "title" : "Alexandria", "latitude": 31.198, "longitude": 29.9192, "month": 0, "day": 0, "articleLength" : 63479}
{"year" : -258, "title" : "Aegean Sea", "latitude": 36.4666648, "longitude": 22.9499962, "month": 0, "day": 0, "articleLength" : 12784}
{"year" : -257, "title" : "Tindari", "latitude": 38.140666104, "longitude": 15.037166518, "month": 0, "day": 0, "articleLength" : 9620}
{"year" : -255, "title" : "Carthage", "latitude": 36.851829926, "longitude": 10.320498718, "month": 0, "day": 0, "articleLength" : 46803}
{"year" : -255, "title" : "Corsica", "latitude": 42.1499994, "longitude": 9.083333, "month": 0, "day": 0, "articleLength" : 29114}
{"year" : -255, "title" : "Sparta", "latitude": 37.07583303, "longitude": 22.42083165, "month": 0, "day": 0, "articleLength" : 53175}
{"year" : -255, "title" : "Miletus", "latitude": 37.530233, "longitude": 27.278369, "month": 0, "day": 0, "articleLength" : 20830}
{"year" : -255, "title" : "Ephesus", "latitude": 37.937162918, "longitude": 27.337831982, "month": 0, "day": 0, "articleLength" : 33946}
{"year" : -255, "title" : "China", "latitude": 35.0, "longitude": 105.0, "month": 0, "day": 0, "articleLength" : 67490}
{"year" : -255, "title" : "Qin Shi Huang", "latitude": 34.3666652, "longitude": 109.249999, "month": 0, "day": 0, "articleLength" : 64434}
{"year" : -255, "title" : "China", "latitude": 35.0, "longitude": 105.0, "month": 0, "day": 0, "articleLength" : 67490}
{"year" : -253, "title" : "Anatolia", "latitude": 39.0, "longitude": 32.0, "month": 0, "day": 0, "articleLength" : 31352}
{"year" : -253, "title" : "Miletus", "latitude": 37.530233, "longitude": 27.278369, "month": 0, "day": 0, "articleLength" : 20830}
{"year" : -253, "title" : "Ephesus", "latitude": 37.937162918, "longitude": 27.337831982, "month": 0, "day": 0, "articleLength" : 33946}
{"year" : -253, "title" : "Thermopylae", "latitude": 38.803163454, "longitude": 22.557664436, "month": 0, "day": 0, "articleLength" : 7700}
{"year" : -253, "title" : "Peloponnese", "latitude": 37.343165294, "longitude": 22.351331928, "month": 0, "day": 0, "articleLength" : 15604}
{"year" : -252, "title" : "Sicyon", "latitude": 37.984104, "longitude": 22.711145, "month": 0, "day": 0, "articleLength" : 6505}
{"year" : -251, "title" : "Sicyon", "latitude": 37.984104, "longitude": 22.711145, "month": 0, "day": 0, "articleLength" : 6505}
{"year" : -251, "title" : "Achaea", "latitude": 38.083333, "longitude": 21.8499966, "month": 0, "day": 0, "articleLength" : 21910}
{"year" : -251, "title" : "Peloponnese", "latitude": 37.343165294, "longitude": 22.351331928, "month": 0, "day": 0, "articleLength" : 15604}
{"year" : -250, "title" : "Alexandria", "latitude": 31.198, "longitude": 29.9192, "month": 0, "day": 0, "articleLength" : 63479}
{"year" : -250, "title" : "Heraclea Minoa", "latitude": 37.3833318, "longitude": 13.2666656, "month": 0, "day": 0, "articleLength" : 18099}
{"year" : -250, "title" : "Pataliputra", "latitude": 25.6125, "longitude": 85.1283333333, "month": 0, "day": 0, "articleLength" : 6797}
{"year" : -250, "title" : "India", "latitude": 21.0, "longitude": 78.0, "month": 0, "day": 0, "articleLength" : 132382}
{"year" : -247, "title" : "Carthage", "latitude": 36.851829926, "longitude": 10.320498718, "month": 0, "day": 0, "articleLength" : 46803}
{"year" : -247, "title" : "Italy", "latitude": 41.8999964, "longitude": 12.4833314, "month": 0, "day": 0, "articleLength" : 147681}
{"year" : -246, "title" : "Judea", "latitude": 31.692663896, "longitude": 35.303832118, "month": 0, "day": 0, "articleLength" : 15068}
{"year" : -246, "title" : "Aegean Sea", "latitude": 36.4666648, "longitude": 22.9499962, "month": 0, "day": 0, "articleLength" : 12784}
{"year" : -246, "title" : "Antioch", "latitude": 36.1999992, "longitude": 36.1499994, "month": 0, "day": 0, "articleLength" : 28693}
{"year" : -246, "title" : "Anatolia", "latitude": 39.0, "longitude": 32.0, "month": 0, "day": 0, "articleLength" : 31352}
{"year" : -246, "title" : "Cyclades", "latitude": 37.0, "longitude": 25.166666, "month": 0, "day": 0, "articleLength" : 11772}
{"year" : -246, "title" : "Anatolia", "latitude": 39.0, "longitude": 32.0, "month": 0, "day": 0, "articleLength" : 31352}
{"year" : -246, "title" : "Shaanxi", "latitude": 35.1833326, "longitude": 109.0666664, "month": 0, "day": 0, "articleLength" : 20454}
{"year" : -246, "title" : "China", "latitude": 35.0, "longitude": 105.0, "month": 0, "day": 0, "articleLength" : 67490}
{"year" : -245, "title" : "Babylon", "latitude": 32.535164526, "longitude": 44.41916499, "month": 0, "day": 0, "articleLength" : 33695}
{"year" : -245, "title" : "Susa", "latitude": 32.18922, "longitude": 48.257785, "month": 0, "day": 0, "articleLength" : 18513}
{"year" : -244, "title" : "Sparta", "latitude": 37.07583303, "longitude": 22.42083165, "month": 0, "day": 0, "articleLength" : 53175}
{"year" : -244, "title" : "Aegean Sea", "latitude": 36.4666648, "longitude": 22.9499962, "month": 0, "day": 0, "articleLength" : 12784}
{"year" : -244, "title" : "Black Sea", "latitude": 44.0, "longitude": 35.0, "month": 0, "day": 0, "articleLength" : 47922}
{"year" : -244, "title" : "India", "latitude": 21.0, "longitude": 78.0, "month": 0, "day": 0, "articleLength" : 132382}
{"year" : -244, "title" : "Andros", "latitude": 37.83333, "longitude": 24.9333296, "month": 0, "day": 0, "articleLength" : 8001}
{"year" : -243, "title" : "Epidaurus", "latitude": 37.590997636, "longitude": 23.07416637, "month": 0, "day": 0, "articleLength" : 6900}
{"year" : -243, "title" : "Sparta", "latitude": 37.07583303, "longitude": 22.42083165, "month": 0, "day": 0, "articleLength" : 53175}
{"year" : -243, "title" : "Sparta", "latitude": 37.07583303, "longitude": 22.42083165, "month": 0, "day": 0, "articleLength" : 53175}
{"year" : -242, "title" : "Aegean Sea", "latitude": 36.4666648, "longitude": 22.9499962, "month": 0, "day": 0, "articleLength" : 12784}
{"year" : -241, "title" : "Sparta", "latitude": 37.07583303, "longitude": 22.42083165, "month": 0, "day": 0, "articleLength" : 53175}
{"year" : -241, "title" : "Messenia", "latitude": 37.249999, "longitude": 21.83333, "month": 0, "day": 0, "articleLength" : 9970}
{"year" : -241, "title" : "Peloponnese", "latitude": 37.343165294, "longitude": 22.351331928, "month": 0, "day": 0, "articleLength" : 15604}
{"year" : -241, "title" : "Libya", "latitude": 27.4, "longitude": 17.6, "month": 0, "day": 0, "articleLength" : 101182}
{"year" : -241, "title" : "Orontes River", "latitude": 35.249999, "longitude": 36.583331, "month": 0, "day": 0, "articleLength" : 4410}
{"year" : -241, "title" : "Antioch", "latitude": 36.1999992, "longitude": 36.1499994, "month": 0, "day": 0, "articleLength" : 28693}
{"year" : -241, "title" : "Ephesus", "latitude": 37.937162918, "longitude": 27.337831982, "month": 0, "day": 0, "articleLength" : 33946}
{"year" : -240, "title" : "Carthage", "latitude": 36.851829926, "longitude": 10.320498718, "month": 0, "day": 0, "articleLength" : 46803}
{"year" : -240, "title" : "Libya", "latitude": 27.4, "longitude": 17.6, "month": 0, "day": 0, "articleLength" : 101182}
{"year" : -239, "title" : "Anatolia", "latitude": 39.0, "longitude": 32.0, "month": 0, "day": 0, "articleLength" : 31352}
